[
  {
    "name": "Global Mall桃園A19(A棟2F無障礙廁)",
    "address": "桃園市中壢區高鐵南路二段352號",
    "type2": "百貨公司",
    "grade": "特優級",
    "country": "桃園市",
    "city": "中壢區",
    "village": "芝芭里",
    "latitude": "25.00244500000000000",
    "longitude": "121.20293500000000000"
  },
  {
    "name": "Global Mall桃園A19(A棟3F無障礙廁)",
    "address": "桃園市中壢區高鐵南路二段352號",
    "type2": "百貨公司",
    "grade": "特優級",
    "country": "桃園市",
    "city": "中壢區",
    "village": "芝芭里",
    "latitude": "25.00244500000000000",
    "longitude": "121.20293500000000000"
  },
  {
    "name": "Global Mall桃園A19(A棟4F無障礙廁)",
    "address": "桃園市中壢區高鐵南路二段352號",
    "type2": "百貨公司",
    "grade": "特優級",
    "country": "桃園市",
    "city": "中壢區",
    "village": "芝芭里",
    "latitude": "25.00244500000000000",
    "longitude": "121.20293500000000000"
  },
  {
    "name": "中壢區文化公園混和廁",
    "address": "中壢區文化路416號",
    "type2": "公園",
    "grade": "特優級",
    "country": "桃園市",
    "city": "中壢區",
    "village": "文化里",
    "latitude": "24.98023200000000000",
    "longitude": "121.25021000000000000"
  },
  {
    "name": "中壢服務區南棟親子廁",
    "address": "桃園市中壢區內定里20鄰內定二街998之3號",
    "type2": "公路車站服務區及休息站",
    "grade": "特優級",
    "country": "桃園市",
    "city": "中壢區",
    "village": "內定里",
    "latitude": "25.00402800000000000",
    "longitude": "121.25089600000000000"
  },
  {
    "name": "桃園新光影城3F影廳女廁",
    "address": "桃園市中壢區春德路107號",
    "type2": "戲院",
    "grade": "特優級",
    "country": "桃園市",
    "city": "中壢區",
    "village": "青埔里",
    "latitude": "25.01669100000000000",
    "longitude": "121.21354200000000000"
  },
  {
    "name": "桃園新光影城5F男廁",
    "address": "桃園市中壢區春德路107號",
    "type2": "戲院",
    "grade": "特優級",
    "country": "桃園市",
    "city": "中壢區",
    "village": "青埔里",
    "latitude": "25.01669100000000000",
    "longitude": "121.21354200000000000"
  },
  {
    "name": "桃園新光影城5F影廳男廁",
    "address": "桃園市中壢區春德路107號",
    "type2": "戲院",
    "grade": "特優級",
    "country": "桃園市",
    "city": "中壢區",
    "village": "青埔里",
    "latitude": "25.01669100000000000",
    "longitude": "121.21354200000000000"
  },
  {
    "name": "中壢監理站5F殘障廁所",
    "address": "中壢區延平路三九四號",
    "type2": "公家機關設置供民眾使用者",
    "grade": "特優級",
    "country": "桃園市",
    "city": "中壢區",
    "village": "興南里",
    "latitude": "24.95971000000000000",
    "longitude": "121.22437800000000000"
  },
  {
    "name": "麥當勞中壢環中店(近內壢)(1F)男廁",
    "address": "中壢區環中東路301、303號",
    "type2": "餐廳",
    "grade": "特優級",
    "country": "桃園市",
    "city": "中壢區",
    "village": "中興里",
    "latitude": "24.96232300000000000",
    "longitude": "121.25580600000000000"
  },
  {
    "name": "家樂福中原店1F男廁",
    "address": "中壢區中華路二段501號",
    "type2": "量販店",
    "grade": "特優級",
    "country": "桃園市",
    "city": "中壢區",
    "village": "仁義里",
    "latitude": "24.96249200000000000",
    "longitude": "121.23204500000000000"
  },
  {
    "name": "家樂福中原店2F男廁",
    "address": "中壢區中華路二段501號",
    "type2": "量販店",
    "grade": "特優級",
    "country": "桃園市",
    "city": "中壢區",
    "village": "仁義里",
    "latitude": "24.96249200000000000",
    "longitude": "121.23204500000000000"
  },
  {
    "name": "家樂福中原店3F(A1區)男廁",
    "address": "中壢區中華路二段501號",
    "type2": "量販店",
    "grade": "特優級",
    "country": "桃園市",
    "city": "中壢區",
    "village": "仁義里",
    "latitude": "24.96249200000000000",
    "longitude": "121.23204500000000000"
  },
  {
    "name": "SOGO中壢元化館2F殘障廁所",
    "address": "中壢區元化路357號",
    "type2": "百貨公司",
    "grade": "特優級",
    "country": "桃園市",
    "city": "中壢區",
    "village": "金華里",
    "latitude": "24.96268500000000000",
    "longitude": "121.22353300000000000"
  },
  {
    "name": "SOGO中壢元化館3F殘障廁所",
    "address": "中壢區元化路357號",
    "type2": "百貨公司",
    "grade": "特優級",
    "country": "桃園市",
    "city": "中壢區",
    "village": "金華里",
    "latitude": "24.96268500000000000",
    "longitude": "121.22353300000000000"
  },
  {
    "name": "SOGO中壢元化館8F女廁",
    "address": "中壢區元化路357號",
    "type2": "百貨公司",
    "grade": "特優級",
    "country": "桃園市",
    "city": "中壢區",
    "village": "金華里",
    "latitude": "24.96268500000000000",
    "longitude": "121.22353300000000000"
  },
  {
    "name": "SOGO中壢元化館11F男廁",
    "address": "中壢區元化路357號",
    "type2": "百貨公司",
    "grade": "特優級",
    "country": "桃園市",
    "city": "中壢區",
    "village": "金華里",
    "latitude": "24.96268500000000000",
    "longitude": "121.22353300000000000"
  },
  {
    "name": "中壢區公所4F右側殘障廁所",
    "address": "桃園市中壢區環北路380號",
    "type2": "公家機關設置供民眾使用者",
    "grade": "特優級",
    "country": "桃園市",
    "city": "中壢區",
    "village": "金華里",
    "latitude": "24.96550200000000000",
    "longitude": "121.22492300000000000"
  },
  {
    "name": "中壢區公所5F男廁",
    "address": "桃園市中壢區環北路380號",
    "type2": "公家機關設置供民眾使用者",
    "grade": "特優級",
    "country": "桃園市",
    "city": "中壢區",
    "village": "金華里",
    "latitude": "24.96550200000000000",
    "longitude": "121.22492300000000000"
  },
  {
    "name": "拉拉山風景旅遊服務中心殘障廁所",
    "address": "桃園市復興區華陵里",
    "type2": "觀光地區及風景區",
    "grade": "特優級",
    "country": "桃園市",
    "city": "復興區",
    "village": "華陵里",
    "latitude": "24.68650900000000000",
    "longitude": "121.40043700000000000"
  },
  {
    "name": "台灣中油觀音山加油站男廁",
    "address": "桃園市大溪區月眉里信義路3號",
    "type2": "加油站",
    "grade": "優等級",
    "country": "桃園市",
    "city": "大溪區",
    "village": "月眉里",
    "latitude": "24.88754700000000000",
    "longitude": "121.28666800000000000"
  },
  {
    "name": "龍潭區台電龍潭服務所1F女廁",
    "address": "桃園市龍潭區東龍路121號",
    "type2": "公營事業機構設置供民眾使用者及其他",
    "grade": "特優級",
    "country": "桃園市",
    "city": "龍潭區",
    "village": "龍星里",
    "latitude": "24.86246400000000000",
    "longitude": "121.21495700000000000"
  },
  {
    "name": "龍潭區新竹客運龍潭站女廁",
    "address": "桃園市龍潭區北龍路13號",
    "type2": "公路車站服務區及休息站",
    "grade": "特優級",
    "country": "桃園市",
    "city": "龍潭區",
    "village": "中山里",
    "latitude": "24.86507100000000000",
    "longitude": "121.21108900000000000"
  },
  {
    "name": "桃園客運大溪站男廁",
    "address": "桃園市大溪區得勝路1號",
    "type2": "公路車站服務區及休息站",
    "grade": "特優級",
    "country": "桃園市",
    "city": "大溪區",
    "village": "興和里",
    "latitude": "24.88125200000000000",
    "longitude": "121.28789500000000000"
  },
  {
    "name": "楊梅地政事務所1F無障礙廁所",
    "address": "桃園市楊梅區校前路411號",
    "type2": "各級機關學校",
    "grade": "特優級",
    "country": "桃園市",
    "city": "楊梅區",
    "village": "永寧里",
    "latitude": "24.89674100000000000",
    "longitude": "121.14926900000000000"
  },
  {
    "name": "楊梅地政事務所3F男廁",
    "address": "桃園市楊梅區校前路411號",
    "type2": "各級機關學校",
    "grade": "特優級",
    "country": "桃園市",
    "city": "楊梅區",
    "village": "永寧里",
    "latitude": "24.89674100000000000",
    "longitude": "121.14926900000000000"
  },
  {
    "name": "楊梅地政事務所4F女廁",
    "address": "桃園市楊梅區校前路411號",
    "type2": "各級機關學校",
    "grade": "特優級",
    "country": "桃園市",
    "city": "楊梅區",
    "village": "永寧里",
    "latitude": "24.89674100000000000",
    "longitude": "121.14926900000000000"
  },
  {
    "name": "愛買楊梅店B1男廁",
    "address": "桃園市楊梅區中山北路二段23巷6號",
    "type2": "量販店",
    "grade": "特優級",
    "country": "桃園市",
    "city": "楊梅區",
    "village": "三民里",
    "latitude": "24.90769200000000000",
    "longitude": "121.16738800000000000"
  },
  {
    "name": "楊梅區-梅溪里三元宮女廁",
    "address": "桃園市楊梅區梅溪里三民北路22號",
    "type2": "寺廟教堂等宗教活動場所",
    "grade": "特優級",
    "country": "桃園市",
    "city": "楊梅區",
    "village": "梅溪里",
    "latitude": "24.90878200000000000",
    "longitude": "121.16786400000000000"
  },
  {
    "name": "KFC楊梅中山餐廳2F男廁",
    "address": "桃園市326楊梅區中山北路二段6-1號",
    "type2": "餐廳",
    "grade": "特優級",
    "country": "桃園市",
    "city": "楊梅區",
    "village": "梅溪里",
    "latitude": "24.90909200000000000",
    "longitude": "121.16700200000000000"
  },
  {
    "name": "台灣中油千億加油站男廁",
    "address": "桃園市平鎮區延平路3段489號",
    "type2": "加油站",
    "grade": "特優級",
    "country": "桃園市",
    "city": "平鎮區",
    "village": "宋屋里",
    "latitude": "24.93156700000000000",
    "longitude": "121.19765300000000000"
  },
  {
    "name": "八德區霄裡玉元宮女廁",
    "address": "桃園市八德區竹圍里二鄰長興路七五六號",
    "type2": "寺廟教堂等宗教活動場所",
    "grade": "特優級",
    "country": "桃園市",
    "city": "八德區",
    "village": "竹園里",
    "latitude": "24.93325900000000000",
    "longitude": "121.26450500000000000"
  },
  {
    "name": "富岡火車站男廁",
    "address": "桃園市楊梅區成功路37號",
    "type2": "鐵路局",
    "grade": "特優級",
    "country": "桃園市",
    "city": "楊梅區",
    "village": "富岡里",
    "latitude": "24.93418700000000000",
    "longitude": "121.08338400000000000"
  },
  {
    "name": "特力屋股份有限公司平鎮店1F女廁",
    "address": "平鎮區環南路二段261號",
    "type2": "量販店",
    "grade": "特優級",
    "country": "桃園市",
    "city": "平鎮區",
    "village": "新富里",
    "latitude": "24.94051600000000000",
    "longitude": "121.21463000000000000"
  },
  {
    "name": "桃園市立圖書館大崗分館1F殘障廁所",
    "address": "桃園市龜山區大崗里20鄰大湖55號",
    "type2": "各級社教機關",
    "grade": "特優級",
    "country": "桃園市",
    "city": "龜山區",
    "village": "大崗里",
    "latitude": "25.05164840087140000",
    "longitude": "121.35817766189600000"
  },
  {
    "name": "龜山區台灣中油文一加油站女廁",
    "address": "桃園市龜山區文化一路73號",
    "type2": "加油站",
    "grade": "特優級",
    "country": "桃園市",
    "city": "龜山區",
    "village": "樂善里",
    "latitude": "25.05142971110670000",
    "longitude": "121.38033270835900000"
  },
  {
    "name": "台茂2F 3號廁所電梯右側女廁",
    "address": "桃園市蘆竹區南崁路一段112號",
    "type2": "量販店",
    "grade": "特優級",
    "country": "桃園市",
    "city": "蘆竹區",
    "village": "錦中里",
    "latitude": "25.05185700000000000",
    "longitude": "121.28818300000000000"
  },
  {
    "name": "台茂7F電梯左側女廁",
    "address": "桃園市蘆竹區南崁路一段112號",
    "type2": "量販店",
    "grade": "特優級",
    "country": "桃園市",
    "city": "蘆竹區",
    "village": "錦中里",
    "latitude": "25.05185700000000000",
    "longitude": "121.28818300000000000"
  },
  {
    "name": "福懋加油站南崁站男廁",
    "address": "桃園市蘆竹區南崁路一段265號",
    "type2": "加油站",
    "grade": "特優級",
    "country": "桃園市",
    "city": "蘆竹區",
    "village": "錦中里",
    "latitude": "25.05356800000000000",
    "longitude": "121.28419300000000000"
  },
  {
    "name": "龜山區台亞石油林口長庚站女廁",
    "address": "桃園市龜山區文化一路41號",
    "type2": "加油站",
    "grade": "特優級",
    "country": "桃園市",
    "city": "龜山區",
    "village": "樂善里",
    "latitude": "25.06105500000000000",
    "longitude": "121.37076400000000000"
  },
  {
    "name": "長庚紀念醫院林口分院醫學大樓1F住院中心旁(AM0102)女廁",
    "address": "桃園市龜山區復興街 5 號",
    "type2": "醫院",
    "grade": "特優級",
    "country": "桃園市",
    "city": "龜山區",
    "village": "公西里",
    "latitude": "25.06112944194510000",
    "longitude": "121.36759757995600000"
  },
  {
    "name": "長庚紀念醫院林口分院病理大樓B1F核醫科等候區(AM0106)男女廁",
    "address": "桃園市龜山區復興街 5 號",
    "type2": "醫院",
    "grade": "特優級",
    "country": "桃園市",
    "city": "龜山區",
    "village": "公西里",
    "latitude": "25.06109056680070000",
    "longitude": "121.36757612228400000"
  },
  {
    "name": "長庚紀念醫院林口分院醫學大樓1F心內檢查區(AM0107)女廁",
    "address": "桃園市龜山區復興街 5 號",
    "type2": "醫院",
    "grade": "特優級",
    "country": "桃園市",
    "city": "龜山區",
    "village": "公西里",
    "latitude": "25.06109056680070000",
    "longitude": "121.36759757995600000"
  },
  {
    "name": "長庚紀念醫院林口分院復健大樓1F22區門診外(AR0101)女廁",
    "address": "桃園市龜山區復興街 5 號",
    "type2": "醫院",
    "grade": "特優級",
    "country": "桃園市",
    "city": "龜山區",
    "village": "公西里",
    "latitude": "25.06112944194510000",
    "longitude": "121.36759757995600000"
  },
  {
    "name": "長庚紀念醫院林口分院復健大樓1F26區門診區(BR0104)男廁",
    "address": "桃園市龜山區復興街 5 號",
    "type2": "醫院",
    "grade": "特優級",
    "country": "桃園市",
    "city": "龜山區",
    "village": "公西里",
    "latitude": "25.06114887951260000",
    "longitude": "121.36753320694000000"
  },
  {
    "name": "長庚紀念醫院林口分院復健大樓1F急診大廳女廁",
    "address": "桃園市龜山區復興街 5 號",
    "type2": "醫院",
    "grade": "特優級",
    "country": "桃園市",
    "city": "龜山區",
    "village": "公西里",
    "latitude": "25.06111000437440000",
    "longitude": "121.36757612228400000"
  },
  {
    "name": "桃園市立圖書館埔心分館1F女廁",
    "address": "桃園市楊梅區中興路145號",
    "type2": "各級社教機關",
    "grade": "特優級",
    "country": "桃園市",
    "city": "楊梅區",
    "village": "埔心里",
    "latitude": "24.91505200000000000",
    "longitude": "121.18633500000000000"
  },
  {
    "name": "桃園市立圖書館埔心分館2F女廁",
    "address": "桃園市楊梅區中興路145號",
    "type2": "各級社教機關",
    "grade": "特優級",
    "country": "桃園市",
    "city": "楊梅區",
    "village": "埔心里",
    "latitude": "24.91505200000000000",
    "longitude": "121.18633500000000000"
  },
  {
    "name": "怡仁綜合醫院B1東側男廁",
    "address": "桃園市楊梅區大同里楊新北路321巷30號",
    "type2": "醫院",
    "grade": "特優級",
    "country": "桃園市",
    "city": "楊梅區",
    "village": "大同里",
    "latitude": "24.91641800000000000",
    "longitude": "121.15492500000000000"
  },
  {
    "name": "楊梅區祐昌加油站男廁",
    "address": "桃園市楊梅區水美里楊新路一段336號",
    "type2": "加油站",
    "grade": "特優級",
    "country": "桃園市",
    "city": "楊梅區",
    "village": "水美里",
    "latitude": "24.91662400000000000",
    "longitude": "121.14098100000000000"
  },
  {
    "name": "大潤發平鎮店B1女廁",
    "address": "桃園市平鎮區南東路57號",
    "type2": "量販店",
    "grade": "特優級",
    "country": "桃園市",
    "city": "平鎮區",
    "village": "南勢里",
    "latitude": "24.92023400000000000",
    "longitude": "121.21158600000000000"
  },
  {
    "name": "埔心牧場第一停車場女廁",
    "address": "桃園市楊梅區高榮里13鄰3-1號",
    "type2": "觀光地區及風景區",
    "grade": "特優級",
    "country": "桃園市",
    "city": "楊梅區",
    "village": "高榮里",
    "latitude": "24.92594600000000000",
    "longitude": "121.17799800000000000"
  },
  {
    "name": "埔心牧場綠活館男廁",
    "address": "桃園市楊梅區高榮里13鄰3-1號",
    "type2": "觀光地區及風景區",
    "grade": "特優級",
    "country": "桃園市",
    "city": "楊梅區",
    "village": "高榮里",
    "latitude": "24.92594600000000000",
    "longitude": "121.17799800000000000"
  },
  {
    "name": "埔心牧場綠園餐廳男廁",
    "address": "桃園市楊梅區高榮里13鄰3-1號",
    "type2": "觀光地區及風景區",
    "grade": "特優級",
    "country": "桃園市",
    "city": "楊梅區",
    "village": "高榮里",
    "latitude": "24.92594600000000000",
    "longitude": "121.17799800000000000"
  },
  {
    "name": "埔心牧場大假山女廁",
    "address": "桃園市楊梅區高榮里13鄰3-1號",
    "type2": "觀光地區及風景區",
    "grade": "特優級",
    "country": "桃園市",
    "city": "楊梅區",
    "village": "高榮里",
    "latitude": "24.92594600000000000",
    "longitude": "121.17799800000000000"
  },
  {
    "name": "桃園區-慈護宮男廁",
    "address": "桃園市桃園區復興路二七五號",
    "type2": "寺廟教堂等宗教活動場所",
    "grade": "特優級",
    "country": "桃園市",
    "city": "桃園區",
    "village": "南門里",
    "latitude": "24.98884800000000000",
    "longitude": "121.30649800000000000"
  },
  {
    "name": "桃園區龍岡公園男廁",
    "address": "桃園市桃園區國豐二街與國強七街口",
    "type2": "公園",
    "grade": "特優級",
    "country": "桃園市",
    "city": "桃園區",
    "village": "龍鳳里",
    "latitude": "24.98916100000000000",
    "longitude": "121.28092600000000000"
  },
  {
    "name": "桃園市戶政事務所1F男廁",
    "address": "桃園市桃園區龍安里國豐三街一二三號一樓",
    "type2": "各級機關學校",
    "grade": "特優級",
    "country": "桃園市",
    "city": "桃園區",
    "village": "龍安里",
    "latitude": "24.99080800000000000",
    "longitude": "121.27865100000000000"
  },
  {
    "name": "摩斯漢堡市府店(2F)女廁",
    "address": "桃園市桃園區中山路472號1樓",
    "type2": "餐廳",
    "grade": "特優級",
    "country": "桃園市",
    "city": "桃園區",
    "village": "光興里",
    "latitude": "24.99200000000000000",
    "longitude": "121.30150400000000000"
  },
  {
    "name": "台灣中油力行加油站女廁",
    "address": "桃園市桃園區力行路368號",
    "type2": "加油站",
    "grade": "特優級",
    "country": "桃園市",
    "city": "桃園區",
    "village": "中成里",
    "latitude": "24.99875700000000000",
    "longitude": "121.29623600000000000"
  },
  {
    "name": "桃園區-鴻福寺男廁",
    "address": "桃園市桃園區民生路二三一號",
    "type2": "寺廟教堂等宗教活動場所",
    "grade": "特優級",
    "country": "桃園市",
    "city": "桃園區",
    "village": "中和里",
    "latitude": "24.99595200000000000",
    "longitude": "121.31223500000000000"
  },
  {
    "name": "八德區指玄宮男廁",
    "address": "桃園市八德區指玄街66號",
    "type2": "寺廟教堂等宗教活動場所",
    "grade": "特優級",
    "country": "桃園市",
    "city": "八德區",
    "village": "大興里",
    "latitude": "24.95543667341370000",
    "longitude": "121.30733799927800000"
  },
  {
    "name": "統一精工龜山長壽加油站男廁",
    "address": "桃園市龜山區長壽路88號",
    "type2": "加油站",
    "grade": "特優級",
    "country": "桃園市",
    "city": "龜山區",
    "village": "楓樹里",
    "latitude": "25.00198900000000000",
    "longitude": "121.34426600000000000"
  },
  {
    "name": "中壢服務區北棟女廁",
    "address": "桃園市中壢區內定里20鄰內定二街998之3號",
    "type2": "公路車站服務區及休息站",
    "grade": "特優級",
    "country": "桃園市",
    "city": "中壢區",
    "village": "內定里",
    "latitude": "25.00247200000000000",
    "longitude": "121.25146900000000000"
  },
  {
    "name": "東埔公園女廁",
    "address": "桃園市桃園區東埔里信光路五五號(東埔活動中心)旁",
    "type2": "公園",
    "grade": "特優級",
    "country": "桃園市",
    "city": "桃園區",
    "village": "東埔里",
    "latitude": "25.00572300000000000",
    "longitude": "121.30688400000000000"
  },
  {
    "name": "桃園市政府大廳-後棟11F女廁",
    "address": "桃園市桃園區縣府路1號",
    "type2": "各級機關學校",
    "grade": "特優級",
    "country": "桃園市",
    "city": "桃園區",
    "village": "光興里",
    "latitude": "24.99242100000000000",
    "longitude": "121.30104500000000000"
  },
  {
    "name": "桃園市政府大廳-後棟14F男廁",
    "address": "桃園市桃園區縣府路1號",
    "type2": "各級機關學校",
    "grade": "特優級",
    "country": "桃園市",
    "city": "桃園區",
    "village": "光興里",
    "latitude": "24.99242100000000000",
    "longitude": "121.30104500000000000"
  },
  {
    "name": "桃園市立圖書館桃園分館1F殘障廁所",
    "address": "桃園市桃園區民權路24號",
    "type2": "各級社教機關",
    "grade": "特優級",
    "country": "桃園市",
    "city": "桃園區",
    "village": "文昌里",
    "latitude": "24.99293100000000000",
    "longitude": "121.31073100000000000"
  },
  {
    "name": "桃園市立圖書館桃園分館2F殘障廁所",
    "address": "桃園市桃園區民權路24號",
    "type2": "各級社教機關",
    "grade": "特優級",
    "country": "桃園市",
    "city": "桃園區",
    "village": "文昌里",
    "latitude": "24.99293100000000000",
    "longitude": "121.31073100000000000"
  },
  {
    "name": "桃園市政府文化局1F電梯旁外側男廁",
    "address": "桃園市桃園區縣府路21號",
    "type2": "各級機關學校",
    "grade": "特優級",
    "country": "桃園市",
    "city": "桃園區",
    "village": "光興里",
    "latitude": "24.99393600000000000",
    "longitude": "121.30014100000000000"
  },
  {
    "name": "台灣中油龜山加油站女廁",
    "address": "桃園市龜山區萬壽路二段640號",
    "type2": "加油站",
    "grade": "特優級",
    "country": "桃園市",
    "city": "龜山區",
    "village": "龜山里",
    "latitude": "24.99986636317010000",
    "longitude": "121.34638130664800000"
  },
  {
    "name": "虎頭山公園公廁1號風管處旁女廁",
    "address": "桃園市桃園區公園路42號",
    "type2": "公園",
    "grade": "特優級",
    "country": "桃園市",
    "city": "桃園區",
    "village": "三元里",
    "latitude": "25.00210000000000000",
    "longitude": "121.32857700000000000"
  },
  {
    "name": "虎頭山公園公廁5號太陽亭男廁",
    "address": "桃園市桃園區公園路42號",
    "type2": "公園",
    "grade": "特優級",
    "country": "桃園市",
    "city": "桃園區",
    "village": "三元里",
    "latitude": "25.00210000000000000",
    "longitude": "121.32857700000000000"
  },
  {
    "name": "介壽公園女廁",
    "address": "桃園市桃園區介壽路760號",
    "type2": "公園",
    "grade": "特優級",
    "country": "桃園市",
    "city": "桃園區",
    "village": "福林里",
    "latitude": "24.97463200000000000",
    "longitude": "121.30254900000000000"
  },
  {
    "name": "忠孝公園女廁",
    "address": "桃園市桃園區中原里泰昌三街與宏昌十二街口",
    "type2": "公園",
    "grade": "特優級",
    "country": "桃園市",
    "city": "桃園區",
    "village": "中原里",
    "latitude": "24.98575600000000000",
    "longitude": "121.29552000000000000"
  },
  {
    "name": "中壢區-善果林淨土寺女廁",
    "address": "桃園市中壢區福田路99號",
    "type2": "寺廟教堂等宗教活動場所",
    "grade": "特優級",
    "country": "桃園市",
    "city": "中壢區",
    "village": "過嶺里",
    "latitude": "24.97217800000000000",
    "longitude": "121.17112600000000000"
  },
  {
    "name": "新屋永安漁港北停車場無障礙廁所(A-02)",
    "address": "桃園市新屋區永安里17鄰51號",
    "type2": "港區",
    "grade": "特優級",
    "country": "桃園市",
    "city": "新屋區",
    "village": "永安里",
    "latitude": "24.98848600000000000",
    "longitude": "121.01678000000000000"
  },
  {
    "name": "台電桃園區營業處男廁",
    "address": "桃園市桃園區復興路352號",
    "type2": "公營事業機構設置供民眾使用者及其他",
    "grade": "特優級",
    "country": "桃園市",
    "city": "桃園區",
    "village": "南門里",
    "latitude": "24.98973800000000000",
    "longitude": "121.30497100000000000"
  },
  {
    "name": "龍鳳公園男廁",
    "address": "桃園市桃園區國豐三街與國強八街口",
    "type2": "公園",
    "grade": "特優級",
    "country": "桃園市",
    "city": "桃園區",
    "village": "龍鳳里",
    "latitude": "24.98997000000000000",
    "longitude": "121.27910100000000000"
  },
  {
    "name": "KFC桃園中正餐廳男廁",
    "address": "桃園市桃園區中正路43號",
    "type2": "餐廳",
    "grade": "特優級",
    "country": "桃園市",
    "city": "桃園區",
    "village": "文化里",
    "latitude": "24.99070500000000000",
    "longitude": "121.31279500000000000"
  },
  {
    "name": "麥當勞桃園三民店男廁",
    "address": "桃園市桃園區三民路3段313號1樓",
    "type2": "餐廳",
    "grade": "特優級",
    "country": "桃園市",
    "city": "桃園區",
    "village": "文昌里",
    "latitude": "24.99239600000000000",
    "longitude": "121.30609700000000000"
  },
  {
    "name": "國強公園女廁",
    "address": "桃園市桃園區國強一街與益壽一街口",
    "type2": "公園",
    "grade": "特優級",
    "country": "桃園市",
    "city": "桃園區",
    "village": "中路里",
    "latitude": "24.99299100000000000",
    "longitude": "121.28895900000000000"
  },
  {
    "name": "桃園區-佛教蓮社女廁",
    "address": "桃園市桃園區東門里七鄰朝陽街一二號",
    "type2": "寺廟教堂等宗教活動場所",
    "grade": "特優級",
    "country": "桃園市",
    "city": "桃園區",
    "village": "東門里",
    "latitude": "24.99609000000000000",
    "longitude": "121.31387000000000000"
  },
  {
    "name": "麥當勞龜山自強東路店(2F)男廁",
    "address": "桃園縣龜山區自強東路291號1樓",
    "type2": "餐廳",
    "grade": "特優級",
    "country": "桃園市",
    "city": "龜山區",
    "village": "大同里",
    "latitude": "24.99829598555910000",
    "longitude": "121.34522527456300000"
  },
  {
    "name": "朝陽公園女廁",
    "address": "桃園市桃園區朝陽街與三民路口",
    "type2": "公園",
    "grade": "特優級",
    "country": "桃園市",
    "city": "桃園區",
    "village": "朝陽里",
    "latitude": "24.99798385240080000",
    "longitude": "121.31222337484400000"
  },
  {
    "name": "龜山區-明倫三聖宮混合廁",
    "address": "桃園市龜山區三聖路639號",
    "type2": "寺廟教堂等宗教活動場所",
    "grade": "特優級",
    "country": "桃園市",
    "city": "龜山區",
    "village": "龜山里",
    "latitude": "25.00090678805700000",
    "longitude": "121.33166670799300000"
  },
  {
    "name": "中壢服務區南棟女廁",
    "address": "中壢區內定里20鄰內定二街998之3號",
    "type2": "公路車站服務區及休息站",
    "grade": "特優級",
    "country": "桃園市",
    "city": "中壢區",
    "village": "內定里",
    "latitude": "25.00247200000000000",
    "longitude": "121.25146900000000000"
  },
  {
    "name": "台灣石油日隆加油站女廁",
    "address": "桃園市桃園區春日路386號",
    "type2": "加油站",
    "grade": "特優級",
    "country": "桃園市",
    "city": "桃園區",
    "village": "青溪里",
    "latitude": "25.00248500000000000",
    "longitude": "121.31393800000000000"
  },
  {
    "name": "龜山區-壽山巖觀音寺男廁",
    "address": "桃園市龜山區萬壽路二段6巷111號",
    "type2": "寺廟教堂等宗教活動場所",
    "grade": "特優級",
    "country": "桃園市",
    "city": "龜山區",
    "village": "嶺頂里",
    "latitude": "25.00339900000000000",
    "longitude": "121.36598700000000000"
  },
  {
    "name": "桃園市政府地方稅務局中壢分局3F(會議室旁)男廁",
    "address": "桃園市中壢區溪洲街二九六號",
    "type2": "公家機關設置供民眾使用者",
    "grade": "特優級",
    "country": "桃園市",
    "city": "中壢區",
    "village": "普義里",
    "latitude": "24.96228800000000000",
    "longitude": "121.23001200000000000"
  },
  {
    "name": "桃園市政府地方稅務局中壢分局3F(倉庫旁)男廁",
    "address": "桃園市中壢區溪洲街二九六號",
    "type2": "公家機關設置供民眾使用者",
    "grade": "特優級",
    "country": "桃園市",
    "city": "中壢區",
    "village": "普義里",
    "latitude": "24.96228800000000000",
    "longitude": "121.23001200000000000"
  },
  {
    "name": "中壢區衛生所1F女廁",
    "address": "桃園市中壢區溪洲街二九六號",
    "type2": "公家機關設置供民眾使用者",
    "grade": "特優級",
    "country": "桃園市",
    "city": "中壢區",
    "village": "普義里",
    "latitude": "24.96228800000000000",
    "longitude": "121.23001200000000000"
  },
  {
    "name": "八德區中油東勇加油站男廁",
    "address": "桃園市八德區東勇街248號",
    "type2": "加油站",
    "grade": "優等級",
    "country": "桃園市",
    "city": "八德區",
    "village": "大湳里",
    "latitude": "24.96113189519770000",
    "longitude": "121.30891279681200000"
  },
  {
    "name": "大江國際 1F南廁女廁",
    "address": "中壢區中園路二段501號",
    "type2": "量販店",
    "grade": "特優級",
    "country": "桃園市",
    "city": "中壢區",
    "village": "內定里",
    "latitude": "25.00059900000000000",
    "longitude": "121.22885700000000000"
  },
  {
    "name": "SOGO中壢元化館B1殘障廁所",
    "address": "中壢區元化路357號",
    "type2": "百貨公司",
    "grade": "特優級",
    "country": "桃園市",
    "city": "中壢區",
    "village": "金華里",
    "latitude": "24.96268500000000000",
    "longitude": "121.22353300000000000"
  },
  {
    "name": "SOGO中壢元化館6F男廁",
    "address": "中壢區元化路357號",
    "type2": "百貨公司",
    "grade": "特優級",
    "country": "桃園市",
    "city": "中壢區",
    "village": "金華里",
    "latitude": "24.96268500000000000",
    "longitude": "121.22353300000000000"
  },
  {
    "name": "SOGO中壢元化館6F殘障廁所二",
    "address": "中壢區元化路357號",
    "type2": "百貨公司",
    "grade": "特優級",
    "country": "桃園市",
    "city": "中壢區",
    "village": "金華里",
    "latitude": "24.96268500000000000",
    "longitude": "121.22353300000000000"
  },
  {
    "name": "SOGO中壢元化館7F殘障廁所一",
    "address": "中壢區元化路357號",
    "type2": "百貨公司",
    "grade": "特優級",
    "country": "桃園市",
    "city": "中壢區",
    "village": "金華里",
    "latitude": "24.96268500000000000",
    "longitude": "121.22353300000000000"
  },
  {
    "name": "天晟醫院B3女廁",
    "address": "桃園市中壢區延平路一五五號",
    "type2": "醫院",
    "grade": "特優級",
    "country": "桃園市",
    "city": "中壢區",
    "village": "新街里",
    "latitude": "24.96259800000000000",
    "longitude": "121.22906900000000000"
  },
  {
    "name": "天晟醫院2F(西)殘障廁所",
    "address": "桃園市中壢區延平路一五五號",
    "type2": "醫院",
    "grade": "特優級",
    "country": "桃園市",
    "city": "中壢區",
    "village": "新街里",
    "latitude": "24.96259800000000000",
    "longitude": "121.22906900000000000"
  },
  {
    "name": "新屋台灣中油富源加油站男廁",
    "address": "新屋區頭洲里民族路六段435號",
    "type2": "加油站",
    "grade": "特優級",
    "country": "桃園市",
    "city": "新屋區",
    "village": "頭洲里",
    "latitude": "24.96271600000000000",
    "longitude": "121.15604100000000000"
  },
  {
    "name": "麥當勞中壢中華店(2F)女廁",
    "address": "中壢區中華路2段358號1樓",
    "type2": "餐廳",
    "grade": "特優級",
    "country": "桃園市",
    "city": "中壢區",
    "village": "仁義里",
    "latitude": "24.96425800000000000",
    "longitude": "121.23551000000000000"
  },
  {
    "name": "中壢區公所2F左側男廁",
    "address": "桃園市中壢區環北路380號",
    "type2": "公家機關設置供民眾使用者",
    "grade": "特優級",
    "country": "桃園市",
    "city": "中壢區",
    "village": "金華里",
    "latitude": "24.96550200000000000",
    "longitude": "121.22492300000000000"
  },
  {
    "name": "中壢區公所3F右側女廁",
    "address": "桃園市中壢區環北路380號",
    "type2": "公家機關設置供民眾使用者",
    "grade": "特優級",
    "country": "桃園市",
    "city": "中壢區",
    "village": "金華里",
    "latitude": "24.96550200000000000",
    "longitude": "121.22492300000000000"
  },
  {
    "name": "中壢區公所3F左側女廁",
    "address": "桃園市中壢區環北路380號",
    "type2": "公家機關設置供民眾使用者",
    "grade": "特優級",
    "country": "桃園市",
    "city": "中壢區",
    "village": "金華里",
    "latitude": "24.96550200000000000",
    "longitude": "121.22492300000000000"
  },
  {
    "name": "中壢北基加油站正中站男廁",
    "address": "桃園市中壢區中正路1015號",
    "type2": "加油站",
    "grade": "特優級",
    "country": "桃園市",
    "city": "中壢區",
    "village": "五權里",
    "latitude": "24.96520400000000000",
    "longitude": "121.20441400000000000"
  },
  {
    "name": "八德區全國鶯歌交流道加油站女廁",
    "address": "桃園市八德區福德一路72號",
    "type2": "加油站",
    "grade": "特優級",
    "country": "桃園市",
    "city": "八德區",
    "village": "大明里",
    "latitude": "24.96583300000000000",
    "longitude": "121.32797000000000000"
  },
  {
    "name": "新屋台塑石油豫章加油站男廁",
    "address": "桃園市新屋區新生里三民路455號",
    "type2": "加油站",
    "grade": "特優級",
    "country": "桃園市",
    "city": "新屋區",
    "village": "新生里",
    "latitude": "24.96968300000000000",
    "longitude": "121.10023600000000000"
  },
  {
    "name": "桃園市立圖書館新屋分館2F男廁",
    "address": "桃園市新屋區新屋里中興路91巷11號",
    "type2": "各級社教機關",
    "grade": "特優級",
    "country": "桃園市",
    "city": "新屋區",
    "village": "新屋里",
    "latitude": "24.97263300000000000",
    "longitude": "121.10523100000000000"
  },
  {
    "name": "桃園國際機場第二航廈(P3北邊)B2-男廁",
    "address": "桃園市大園區航站南路9號",
    "type2": "航空站",
    "grade": "特優級",
    "country": "桃園市",
    "city": "大園區",
    "village": "埔心里",
    "latitude": "25.07041494691010000",
    "longitude": "121.22088659894900000"
  },
  {
    "name": "桃園國際機場第二航廈(地下室照證室)B2-女廁",
    "address": "桃園市大園區航站南路9號",
    "type2": "航空站",
    "grade": "特優級",
    "country": "桃園市",
    "city": "大園區",
    "village": "埔心里",
    "latitude": "25.07055700000000000",
    "longitude": "121.22355300000000000"
  },
  {
    "name": "桃園國際機場第二航廈(東北聯外客運)1F-男廁",
    "address": "桃園市大園區航站南路9號",
    "type2": "航空站",
    "grade": "特優級",
    "country": "桃園市",
    "city": "大園區",
    "village": "埔心里",
    "latitude": "25.07055700000000000",
    "longitude": "121.22355300000000000"
  },
  {
    "name": "桃園國際機場第二航廈(資訊處)2F-女廁",
    "address": "桃園市大園區航站南路9號",
    "type2": "航空站",
    "grade": "特優級",
    "country": "桃園市",
    "city": "大園區",
    "village": "埔心里",
    "latitude": "25.07055700000000000",
    "longitude": "121.22355300000000000"
  },
  {
    "name": "桃園國際機場第二航廈(西北)4F-男廁",
    "address": "桃園市大園區航站南路9號",
    "type2": "航空站",
    "grade": "特優級",
    "country": "桃園市",
    "city": "大園區",
    "village": "埔心里",
    "latitude": "25.07055700000000000",
    "longitude": "121.22355300000000000"
  },
  {
    "name": "桃園國際機場第二航廈(主體北邊地下室)B2-女廁",
    "address": "桃園市大園區航站南路9號",
    "type2": "航空站",
    "grade": "特優級",
    "country": "桃園市",
    "city": "大園區",
    "village": "埔心里",
    "latitude": "25.07055700000000000",
    "longitude": "121.22355300000000000"
  },
  {
    "name": "桃園國際機場第二航廈(P4停車場大樓)1F-男廁",
    "address": "桃園市大園區航站南路9號",
    "type2": "航空站",
    "grade": "特優級",
    "country": "桃園市",
    "city": "大園區",
    "village": "埔心里",
    "latitude": "25.07055700000000000",
    "longitude": "121.22355300000000000"
  },
  {
    "name": "桃園國際機場第二航廈(P4停車場大樓)2F-女廁",
    "address": "桃園市大園區航站南路9號",
    "type2": "航空站",
    "grade": "特優級",
    "country": "桃園市",
    "city": "大園區",
    "village": "埔心里",
    "latitude": "25.07055700000000000",
    "longitude": "121.22355300000000000"
  },
  {
    "name": "桃園國際機場第二航廈(P4停車場大樓)4F-男廁",
    "address": "桃園市大園區航站南路9號",
    "type2": "航空站",
    "grade": "特優級",
    "country": "桃園市",
    "city": "大園區",
    "village": "埔心里",
    "latitude": "25.07055700000000000",
    "longitude": "121.22355300000000000"
  },
  {
    "name": "蘆竹區頂社加油站男廁",
    "address": "桃園市蘆竹區山林路3段108號",
    "type2": "加油站",
    "grade": "特優級",
    "country": "桃園市",
    "city": "蘆竹區",
    "village": "坑子里",
    "latitude": "25.07864500000000000",
    "longitude": "121.33263400000000000"
  },
  {
    "name": "蘆竹區永加加油站男廁",
    "address": "桃園市蘆竹區海山路一段88號",
    "type2": "加油站",
    "grade": "優等級",
    "country": "桃園市",
    "city": "蘆竹區",
    "village": "坑口里",
    "latitude": "25.09359100000000000",
    "longitude": "121.26772000000000000"
  },
  {
    "name": "大溪區-仁安宮女廁",
    "address": "桃園市大溪區康安里十三鄰安和路一號",
    "type2": "寺廟教堂等宗教活動場所",
    "grade": "特優級",
    "country": "桃園市",
    "city": "大溪區",
    "village": "康安里",
    "latitude": "24.85729900000000000",
    "longitude": "121.28100900000000000"
  },
  {
    "name": "大溪區-月眉山觀音寺男廁",
    "address": "桃園市大溪區月眉里十五鄰月眉九十一號",
    "type2": "寺廟教堂等宗教活動場所",
    "grade": "特優級",
    "country": "桃園市",
    "city": "大溪區",
    "village": "月眉里",
    "latitude": "24.88795476637050000",
    "longitude": "121.28623008728000000"
  },
  {
    "name": "全國加油站大溪交流道站男廁",
    "address": "桃園市大溪區南興里16鄰永昌路345號",
    "type2": "加油站",
    "grade": "優等級",
    "country": "桃園市",
    "city": "大溪區",
    "village": "南興里",
    "latitude": "24.89612100000000000",
    "longitude": "121.26225500000000000"
  },
  {
    "name": "大溪區-仁和宮女廁",
    "address": "桃園市大溪區仁愛里五鄰埔頂街19號",
    "type2": "寺廟教堂等宗教活動場所",
    "grade": "特優級",
    "country": "桃園市",
    "city": "大溪區",
    "village": "仁愛里",
    "latitude": "24.90191200000000000",
    "longitude": "121.27594600000000000"
  },
  {
    "name": "桃園市立圖書館八德分館4F女廁",
    "address": "八德區興仁里興豐路264號",
    "type2": "各級社教機關",
    "grade": "特優級",
    "country": "桃園市",
    "city": "八德區",
    "village": "興仁里",
    "latitude": "24.92856000000000000",
    "longitude": "121.28487800000000000"
  },
  {
    "name": "八德區公所1F左側男廁",
    "address": "桃園市八德區中山路47號",
    "type2": "各級機關學校",
    "grade": "特優級",
    "country": "桃園市",
    "city": "八德區",
    "village": "興仁里",
    "latitude": "24.92892700000000000",
    "longitude": "121.28453200000000000"
  },
  {
    "name": "台灣中油富岡加油站無障礙廁所",
    "address": "桃園市楊梅區民富路三段574號",
    "type2": "加油站",
    "grade": "特優級",
    "country": "桃園市",
    "city": "楊梅區",
    "village": "員本里",
    "latitude": "24.93376500000000000",
    "longitude": "121.09322200000000000"
  },
  {
    "name": "中央健康保險署北區業務組1F男廁",
    "address": "中壢區中山東路3段525號",
    "type2": "公家機關設置供民眾使用者",
    "grade": "特優級",
    "country": "桃園市",
    "city": "中壢區",
    "village": "中堅里",
    "latitude": "24.93718300000000000",
    "longitude": "121.25442600000000000"
  },
  {
    "name": "台灣中油平鎮鼎鈺加油站女廁",
    "address": "桃園市平鎮區環南路3段208號",
    "type2": "加油站",
    "grade": "特優級",
    "country": "桃園市",
    "city": "平鎮區",
    "village": "北興里",
    "latitude": "24.93987000000000000",
    "longitude": "121.22170500000000000"
  },
  {
    "name": "台灣中油平鎮金陵加油站男廁",
    "address": "桃園市平鎮區金陵路二段123號",
    "type2": "加油站",
    "grade": "特優級",
    "country": "桃園市",
    "city": "平鎮區",
    "village": "北興里",
    "latitude": "24.94021300000000000",
    "longitude": "121.22310000000000000"
  },
  {
    "name": "大溪區-永昌宮男廁",
    "address": "桃園市大溪區南興里十一鄰廣福九號",
    "type2": "寺廟教堂等宗教活動場所",
    "grade": "特優級",
    "country": "桃園市",
    "city": "大溪區",
    "village": "南興里",
    "latitude": "24.90443123543230000",
    "longitude": "121.26521909234700000"
  },
  {
    "name": "大溪區-香光山寺男廁",
    "address": "桃園市大溪區福安里11鄰頭寮16號",
    "type2": "寺廟教堂等宗教活動場所",
    "grade": "特優級",
    "country": "桃園市",
    "city": "大溪區",
    "village": "福安里",
    "latitude": "24.84398535152000000",
    "longitude": "121.28349423408500000"
  },
  {
    "name": "全國加油站大溪介壽站女廁",
    "address": "大溪區介壽路300號",
    "type2": "加油站",
    "grade": "優等級",
    "country": "桃園市",
    "city": "大溪區",
    "village": "仁美里",
    "latitude": "24.91627600000000000",
    "longitude": "121.28990200000000000"
  },
  {
    "name": "大溪區-佛光山寶塔寺男廁",
    "address": "桃園市大溪區美華里茄苳坑七鄰五號",
    "type2": "寺廟教堂等宗教活動場所",
    "grade": "特優級",
    "country": "桃園市",
    "city": "大溪區",
    "village": "美華里",
    "latitude": "24.86829360046260000",
    "longitude": "121.30039215087900000"
  },
  {
    "name": "平鎮區北勢社區發展協會(2F)女廁",
    "address": "桃園市平鎮區北華里振平街153號",
    "type2": "民眾團體活動場所",
    "grade": "特優級",
    "country": "桃園市",
    "city": "平鎮區",
    "village": "北華里",
    "latitude": "24.94361197508290000",
    "longitude": "121.22066617012000000"
  },
  {
    "name": "八德區更寮腳福德宮女廁",
    "address": "桃園市八德區更寮腳7號",
    "type2": "寺廟教堂等宗教活動場所",
    "grade": "特優級",
    "country": "桃園市",
    "city": "八德區",
    "village": "瑞德里",
    "latitude": "24.93020351193470000",
    "longitude": "121.29497408866900000"
  },
  {
    "name": "中壢區台亞石油樺勛加油站女廁",
    "address": "桃園市中壢區榮民南路500號",
    "type2": "加油站",
    "grade": "特優級",
    "country": "桃園市",
    "city": "中壢區",
    "village": "仁美里",
    "latitude": "24.94594100000000000",
    "longitude": "121.25656100000000000"
  },
  {
    "name": "大溪花海 (餐廳)男廁",
    "address": "桃園市大溪區福安里4鄰埤尾7之1號",
    "type2": "餐廳",
    "grade": "特優級",
    "country": "桃園市",
    "city": "大溪區",
    "village": "福安里",
    "latitude": "24.84257363244400000",
    "longitude": "121.29050016403200000"
  },
  {
    "name": "大溪花海 (會議室)女廁",
    "address": "桃園市大溪區福安里4鄰埤尾7之1號",
    "type2": "餐廳",
    "grade": "特優級",
    "country": "桃園市",
    "city": "大溪區",
    "village": "福安里",
    "latitude": "24.84274888120470000",
    "longitude": "121.29043579101600000"
  },
  {
    "name": "八德區公所2F右側女廁",
    "address": "桃園市八德區中山路47號",
    "type2": "各級機關學校",
    "grade": "特優級",
    "country": "桃園市",
    "city": "八德區",
    "village": "興仁里",
    "latitude": "24.92892700000000000",
    "longitude": "121.28453200000000000"
  },
  {
    "name": "八德區公所4F左側男廁",
    "address": "桃園市八德區中山路47號",
    "type2": "各級機關學校",
    "grade": "特優級",
    "country": "桃園市",
    "city": "八德區",
    "village": "興仁里",
    "latitude": "24.92892700000000000",
    "longitude": "121.28453200000000000"
  },
  {
    "name": "台灣中油祥順加油站女廁",
    "address": "平鎮區中豐路一段255號",
    "type2": "加油站",
    "grade": "特優級",
    "country": "桃園市",
    "city": "平鎮區",
    "village": "新貴里",
    "latitude": "24.93057400000000000",
    "longitude": "121.21414400000000000"
  },
  {
    "name": "八德區中油八德加油站男廁",
    "address": "桃園市八德區竹園里長興路556號",
    "type2": "加油站",
    "grade": "特優級",
    "country": "桃園市",
    "city": "八德區",
    "village": "竹園里",
    "latitude": "24.93264600000000000",
    "longitude": "121.27135400000000000"
  },
  {
    "name": "台灣中油寶島加油站女廁",
    "address": "桃園市平鎮區中豐路580號",
    "type2": "加油站",
    "grade": "特優級",
    "country": "桃園市",
    "city": "平鎮區",
    "village": "新貴里",
    "latitude": "24.93349600000000000",
    "longitude": "121.21473700000000000"
  },
  {
    "name": "桃園市立圖書館平鎮分館2F演藝廳男廁二",
    "address": "桃園市平鎮區市環南路三段88號",
    "type2": "各級機關學校",
    "grade": "特優級",
    "country": "桃園市",
    "city": "平鎮區",
    "village": "新富里",
    "latitude": "24.93976300000000000",
    "longitude": "121.21771300000000000"
  },
  {
    "name": "桃園市立圖書館平鎮分館3F演藝廳女廁一",
    "address": "桃園市平鎮區市環南路三段88號",
    "type2": "各級機關學校",
    "grade": "特優級",
    "country": "桃園市",
    "city": "平鎮區",
    "village": "新富里",
    "latitude": "24.93976300000000000",
    "longitude": "121.21771300000000000"
  },
  {
    "name": "桃園市平鎮區衛生所2F男廁",
    "address": "桃園市平鎮區振興路1號",
    "type2": "各級機關學校",
    "grade": "特優級",
    "country": "桃園市",
    "city": "平鎮區",
    "village": "新富里",
    "latitude": "24.94566700000000000",
    "longitude": "121.21751500000000000"
  },
  {
    "name": "桃園市平鎮區衛生所3F無障礙廁所",
    "address": "桃園市平鎮區振興路1號",
    "type2": "各級機關學校",
    "grade": "特優級",
    "country": "桃園市",
    "city": "平鎮區",
    "village": "新富里",
    "latitude": "24.94566700000000000",
    "longitude": "121.21751500000000000"
  },
  {
    "name": "桃園市平鎮區公所1F殘障廁所",
    "address": "桃園市平鎮區振興路5號",
    "type2": "各級機關學校",
    "grade": "特優級",
    "country": "桃園市",
    "city": "平鎮區",
    "village": "新富里",
    "latitude": "24.94566700000000000",
    "longitude": "121.21751500000000000"
  },
  {
    "name": "壢新醫院(門診大樓)1F殘障廁所",
    "address": "桃園市平鎮區廣泰路77號",
    "type2": "醫院",
    "grade": "特優級",
    "country": "桃園市",
    "city": "平鎮區",
    "village": "義民里",
    "latitude": "24.94654700000000000",
    "longitude": "121.20515600000000000"
  },
  {
    "name": "壢新醫院(門診大樓)2F門診區男廁",
    "address": "桃園市平鎮區廣泰路77號",
    "type2": "醫院",
    "grade": "特優級",
    "country": "桃園市",
    "city": "平鎮區",
    "village": "義民里",
    "latitude": "24.94654700000000000",
    "longitude": "121.20515600000000000"
  },
  {
    "name": "壢新醫院(門診大樓)3F櫃檯對面女廁",
    "address": "桃園市平鎮區廣泰路77號",
    "type2": "醫院",
    "grade": "特優級",
    "country": "桃園市",
    "city": "平鎮區",
    "village": "義民里",
    "latitude": "24.94654700000000000",
    "longitude": "121.20515600000000000"
  },
  {
    "name": "壢新醫院(醫療大樓)B1無障礙廁所",
    "address": "桃園市平鎮區廣泰路77號",
    "type2": "醫院",
    "grade": "特優級",
    "country": "桃園市",
    "city": "平鎮區",
    "village": "義民里",
    "latitude": "24.94654700000000000",
    "longitude": "121.20515600000000000"
  },
  {
    "name": "平鎮區-褒忠祠無障礙廁",
    "address": "桃園市平鎮區義民里14鄰復旦路2段23巷8號",
    "type2": "寺廟教堂等宗教活動場所",
    "grade": "特優級",
    "country": "桃園市",
    "city": "平鎮區",
    "village": "義民里",
    "latitude": "24.94750000000000000",
    "longitude": "121.20490200000000000"
  },
  {
    "name": "長庚紀念醫院桃園分院5F南一殘障廁所",
    "address": "桃園市龜山區頂湖路123號",
    "type2": "醫院",
    "grade": "特優級",
    "country": "桃園市",
    "city": "龜山區",
    "village": "舊路里",
    "latitude": "25.02929628978700000",
    "longitude": "121.36695384979200000"
  },
  {
    "name": "長庚紀念醫院桃園分院3F北一殘障廁所",
    "address": "桃園市龜山區頂湖路123號",
    "type2": "醫院",
    "grade": "特優級",
    "country": "桃園市",
    "city": "龜山區",
    "village": "舊路里",
    "latitude": "25.02929142913300000",
    "longitude": "121.36695384979200000"
  },
  {
    "name": "長庚紀念醫院桃園分院1F 一般牙科門診外殘障廁所",
    "address": "桃園市龜山區頂湖路123號",
    "type2": "醫院",
    "grade": "特優級",
    "country": "桃園市",
    "city": "龜山區",
    "village": "舊路里",
    "latitude": "25.02926226520440000",
    "longitude": "121.36694848537400000"
  },
  {
    "name": "長庚紀念醫院桃園分院1F南一男廁",
    "address": "桃園市龜山區頂湖路123號",
    "type2": "醫院",
    "grade": "特優級",
    "country": "桃園市",
    "city": "龜山區",
    "village": "舊路里",
    "latitude": "25.02926712585960000",
    "longitude": "121.36694848537400000"
  },
  {
    "name": "長庚紀念醫院桃園分院1F 檢查二區外女廁",
    "address": "桃園市龜山區頂湖路123號",
    "type2": "醫院",
    "grade": "特優級",
    "country": "桃園市",
    "city": "龜山區",
    "village": "舊路里",
    "latitude": "25.02930115044100000",
    "longitude": "121.36694177985200000"
  },
  {
    "name": "長庚紀念醫院桃園分院B1北一男廁",
    "address": "桃園市龜山區頂湖路123號",
    "type2": "醫院",
    "grade": "特優級",
    "country": "桃園市",
    "city": "龜山區",
    "village": "舊路里",
    "latitude": "25.02928413815150000",
    "longitude": "121.36694446206100000"
  },
  {
    "name": "長庚紀念醫院桃園分院B1南一女廁",
    "address": "桃園市龜山區頂湖路123號",
    "type2": "醫院",
    "grade": "特優級",
    "country": "桃園市",
    "city": "龜山區",
    "village": "舊路里",
    "latitude": "25.02928899880580000",
    "longitude": "121.36694848537400000"
  },
  {
    "name": "長庚紀念醫院桃園分院B1中醫門診區外殘障廁所",
    "address": "桃園市龜山區頂湖路123號",
    "type2": "醫院",
    "grade": "特優級",
    "country": "桃園市",
    "city": "龜山區",
    "village": "舊路里",
    "latitude": "25.02929872011400000",
    "longitude": "121.36694312095600000"
  },
  {
    "name": "長庚紀念醫院桃園分院B2南一男廁",
    "address": "桃園市龜山區頂湖路123號",
    "type2": "醫院",
    "grade": "特優級",
    "country": "桃園市",
    "city": "龜山區",
    "village": "舊路里",
    "latitude": "25.02929385946000000",
    "longitude": "121.36694312095600000"
  },
  {
    "name": "長庚紀念醫院桃園分院B2管理部辦公室外女廁",
    "address": "桃園市龜山區頂湖路123號",
    "type2": "醫院",
    "grade": "特優級",
    "country": "桃園市",
    "city": "龜山區",
    "village": "舊路里",
    "latitude": "25.02925740454900000",
    "longitude": "121.36695921421100000"
  },
  {
    "name": "長庚紀念醫院桃園分院B4北一殘障廁所",
    "address": "桃園市龜山區頂湖路123號",
    "type2": "醫院",
    "grade": "特優級",
    "country": "桃園市",
    "city": "龜山區",
    "village": "舊路里",
    "latitude": "25.02927198651470000",
    "longitude": "121.36695921421100000"
  },
  {
    "name": "長庚紀念醫院桃園分院B4南一殘障廁所",
    "address": "桃園市龜山區頂湖路123號",
    "type2": "醫院",
    "grade": "特優級",
    "country": "桃園市",
    "city": "龜山區",
    "village": "舊路里",
    "latitude": "25.02928899880580000",
    "longitude": "121.36694848537400000"
  },
  {
    "name": "名興加油站男廁",
    "address": "桃園市觀音區廣興里成功路二段1690號",
    "type2": "加油站",
    "grade": "特優級",
    "country": "桃園市",
    "city": "觀音區",
    "village": "廣興里",
    "latitude": "25.03632700000000000",
    "longitude": "121.10280800000000000"
  },
  {
    "name": "蘆竹區統一精工加油站女廁",
    "address": "桃園市蘆竹區南竹路二段156號",
    "type2": "加油站",
    "grade": "優等級",
    "country": "桃園市",
    "city": "蘆竹區",
    "village": "蘆興里",
    "latitude": "25.04192700000000000",
    "longitude": "121.28511500000000000"
  },
  {
    "name": "蘆竹區公所2F東側殘障廁所",
    "address": "桃園市蘆竹區南崁路150號",
    "type2": "各級機關學校",
    "grade": "特優級",
    "country": "桃園市",
    "city": "蘆竹區",
    "village": "南崁里",
    "latitude": "25.04695600000000000",
    "longitude": "121.29524700000000000"
  },
  {
    "name": "龜山區台亞石油全鋒中悅加油站女廁",
    "address": "桃園市龜山區南祥路86號",
    "type2": "加油站",
    "grade": "優等級",
    "country": "桃園市",
    "city": "龜山區",
    "village": "南美里",
    "latitude": "25.04724300000000000",
    "longitude": "121.29971900000000000"
  },
  {
    "name": "大溪河濱公園男廁",
    "address": "桃園市大溪區瑞興里大鶯路六○巷八九弄七五號",
    "type2": "公園",
    "grade": "特優級",
    "country": "桃園市",
    "city": "大溪區",
    "village": "瑞興里",
    "latitude": "24.89316153124360000",
    "longitude": "121.28380537033100000"
  },
  {
    "name": "柑園加油站楊梅站男廁",
    "address": "桃園市楊梅區中山北路一段43號",
    "type2": "加油站",
    "grade": "特優級",
    "country": "桃園市",
    "city": "楊梅區",
    "village": "中山里",
    "latitude": "24.90730671607150000",
    "longitude": "121.15079194307300000"
  },
  {
    "name": "楊梅區公有第一市場女廁",
    "address": "桃園市楊梅區復華街47號",
    "type2": "市場",
    "grade": "特優級",
    "country": "桃園市",
    "city": "楊梅區",
    "village": "紅梅里",
    "latitude": "24.90832800000000000",
    "longitude": "121.14368300000000000"
  },
  {
    "name": "台灣中油九如加油站女廁",
    "address": "桃園市大溪區南興里仁和路2段573號",
    "type2": "加油站",
    "grade": "優等級",
    "country": "桃園市",
    "city": "大溪區",
    "village": "南興里",
    "latitude": "24.91077800000000000",
    "longitude": "121.25507500000000000"
  },
  {
    "name": "埔心加油站無障礙廁所",
    "address": "桃園市楊梅區中山北路二段308號",
    "type2": "加油站",
    "grade": "特優級",
    "country": "桃園市",
    "city": "楊梅區",
    "village": "永平里",
    "latitude": "24.91168000000000000",
    "longitude": "121.17466200000000000"
  },
  {
    "name": "台灣中油龍東加油站男廁",
    "address": "桃園市平鎮區平東路310號",
    "type2": "加油站",
    "grade": "優等級",
    "country": "桃園市",
    "city": "平鎮區",
    "village": "華安里",
    "latitude": "24.91499700000000000",
    "longitude": "121.24742800000000000"
  },
  {
    "name": "怡仁綜合醫院B1西側女廁",
    "address": "桃園市楊梅區大同里楊新北路321巷30號",
    "type2": "醫院",
    "grade": "特優級",
    "country": "桃園市",
    "city": "楊梅區",
    "village": "大同里",
    "latitude": "24.91641800000000000",
    "longitude": "121.15492500000000000"
  },
  {
    "name": "台灣中油北基加油站東宏站男廁",
    "address": "桃園市平鎮區南東路69號",
    "type2": "加油站",
    "grade": "特優級",
    "country": "桃園市",
    "city": "平鎮區",
    "village": "南勢里",
    "latitude": "24.92078000000000000",
    "longitude": "121.21435600000000000"
  },
  {
    "name": "埔心牧場綠廊餐廳女廁",
    "address": "桃園市楊梅區高榮里13鄰3-1號",
    "type2": "觀光地區及風景區",
    "grade": "特優級",
    "country": "桃園市",
    "city": "楊梅區",
    "village": "高榮里",
    "latitude": "24.92594600000000000",
    "longitude": "121.17799800000000000"
  },
  {
    "name": "桃園區春日加油站男廁",
    "address": "桃園市桃園區春日路971號",
    "type2": "加油站",
    "grade": "特優級",
    "country": "桃園市",
    "city": "桃園區",
    "village": "大興里",
    "latitude": "25.01046000000000000",
    "longitude": "121.31045900000000000"
  },
  {
    "name": "觀音區台灣中油 新坡加油站女廁",
    "address": "桃園市觀音區大同里中山路二段794號",
    "type2": "加油站",
    "grade": "特優級",
    "country": "桃園市",
    "city": "觀音區",
    "village": "大同里",
    "latitude": "25.01082900000000000",
    "longitude": "121.13932100000000000"
  },
  {
    "name": "敏盛綜合醫院(經國院區)B2男廁",
    "address": "桃園市桃園區經國路168號",
    "type2": "醫院",
    "grade": "特優級",
    "country": "桃園市",
    "city": "桃園區",
    "village": "新埔里",
    "latitude": "25.01644700000000000",
    "longitude": "121.30597200000000000"
  },
  {
    "name": "樂生療養院迴龍院區1F(檢體採集櫃檯旁)女廁",
    "address": "桃園市龜山區萬壽路一段50巷2號",
    "type2": "醫院",
    "grade": "特優級",
    "country": "桃園市",
    "city": "龜山區",
    "village": "迴龍里",
    "latitude": "25.02033291650720000",
    "longitude": "121.40795946121200000"
  },
  {
    "name": "龜山區北基加油站東佑站女廁",
    "address": "桃園市龜山區振興路991號",
    "type2": "加油站",
    "grade": "特優級",
    "country": "桃園市",
    "city": "龜山區",
    "village": "舊路里",
    "latitude": "25.02444500000000000",
    "longitude": "121.36682800000000000"
  },
  {
    "name": "台灣中油嘉豐加油站-男廁",
    "address": "桃園市大園區中正東路二段493號",
    "type2": "加油站",
    "grade": "特優級",
    "country": "桃園市",
    "city": "大園區",
    "village": "五權里",
    "latitude": "25.02568320000000000",
    "longitude": "121.23078190000000000"
  },
  {
    "name": "圳頭福忠宮-女廁",
    "address": "桃園市大園區圳頭里濱海路二段436號",
    "type2": "寺廟教堂等宗教活動場所",
    "grade": "特優級",
    "country": "桃園市",
    "city": "大園區",
    "village": "圳頭里",
    "latitude": "25.08950902000000000",
    "longitude": "121.19917430000000000"
  },
  {
    "name": "保安宮-男廁",
    "address": "桃園市大園區沙崙里12鄰沙崙38之1號",
    "type2": "寺廟教堂等宗教活動場所",
    "grade": "特優級",
    "country": "桃園市",
    "city": "大園區",
    "village": "沙崙里",
    "latitude": "25.09375292000000000",
    "longitude": "121.22321260000000000"
  },
  {
    "name": "拉拉山風景旅遊服務中心女廁",
    "address": "桃園市復興區華陵里7鄰29號",
    "type2": "觀光地區及風景區",
    "grade": "特優級",
    "country": "桃園市",
    "city": "復興區",
    "village": "華陵里",
    "latitude": "24.67810800000000000",
    "longitude": "121.39719400000000000"
  },
  {
    "name": "拉拉山風景特定區上巴陵派出所旁男廁",
    "address": "桃園市復興區華陵里9鄰44號",
    "type2": "觀光地區及風景區",
    "grade": "特優級",
    "country": "桃園市",
    "city": "復興區",
    "village": "華陵里",
    "latitude": "24.67810800000000000",
    "longitude": "121.39719400000000000"
  },
  {
    "name": "小烏來風景特定區停車場男廁",
    "address": "桃園市復興區義盛里",
    "type2": "觀光地區及風景區",
    "grade": "特優級",
    "country": "桃園市",
    "city": "復興區",
    "village": "義盛里",
    "latitude": "24.79108800000000000",
    "longitude": "121.37498600000000000"
  },
  {
    "name": "角板山行館（2）（回字館內）殘障廁所",
    "address": "桃園市復興區中正路133-1號",
    "type2": "觀光地區及風景區",
    "grade": "特優級",
    "country": "桃園市",
    "city": "復興區",
    "village": "澤仁里",
    "latitude": "24.81224800000000000",
    "longitude": "121.35900600000000000"
  },
  {
    "name": "石門水庫(大溪轄區)溪洲公園男廁一",
    "address": "大溪區復興里環湖路1號",
    "type2": "觀光地區及風景區",
    "grade": "特優級",
    "country": "桃園市",
    "city": "大溪區",
    "village": "復興里",
    "latitude": "24.81146800000000000",
    "longitude": "121.24838300000000000"
  },
  {
    "name": "石門水庫(大溪轄區)溪洲公園女廁二",
    "address": "大溪區復興里環湖路1號",
    "type2": "觀光地區及風景區",
    "grade": "特優級",
    "country": "桃園市",
    "city": "大溪區",
    "village": "復興里",
    "latitude": "24.81146800000000000",
    "longitude": "121.24838300000000000"
  },
  {
    "name": "龍潭區小人國主題樂園綠建築女廁",
    "address": "桃園市龍潭區高原里高原路891號",
    "type2": "森林遊樂區",
    "grade": "特優級",
    "country": "桃園市",
    "city": "龍潭區",
    "village": "高原里",
    "latitude": "24.83215900000000000",
    "longitude": "121.18717500000000000"
  },
  {
    "name": "龍潭區小人國主題樂園擎天輪女廁",
    "address": "桃園市龍潭區高原里高原路891號",
    "type2": "森林遊樂區",
    "grade": "特優級",
    "country": "桃園市",
    "city": "龍潭區",
    "village": "高原里",
    "latitude": "24.83126956321670000",
    "longitude": "121.18532967560900000"
  },
  {
    "name": "新屋區-保生宮女廁",
    "address": "桃園市新屋區保生路51號",
    "type2": "寺廟教堂等宗教活動場所",
    "grade": "優等級",
    "country": "桃園市",
    "city": "新屋區",
    "village": "永安里",
    "latitude": "24.98870300000000000",
    "longitude": "121.02822300000000000"
  },
  {
    "name": "新屋台灣中油永新加油站女廁",
    "address": "桃園市新屋區永安里中山西路三段669號",
    "type2": "加油站",
    "grade": "特優級",
    "country": "桃園市",
    "city": "新屋區",
    "village": "永安里",
    "latitude": "24.98881800000000000",
    "longitude": "121.03065200000000000"
  },
  {
    "name": "桃園遠東百貨6F女廁",
    "address": "桃園市桃園區中正路20號",
    "type2": "百貨公司",
    "grade": "特優級",
    "country": "桃園市",
    "city": "桃園區",
    "village": "武陵里",
    "latitude": "24.98988500000000000",
    "longitude": "121.31410200000000000"
  },
  {
    "name": "桃園遠東百貨8F男廁",
    "address": "桃園市桃園區中正路20號",
    "type2": "百貨公司",
    "grade": "特優級",
    "country": "桃園市",
    "city": "桃園區",
    "village": "武陵里",
    "latitude": "24.98988500000000000",
    "longitude": "121.31410200000000000"
  },
  {
    "name": "新光三越站前店5F女廁",
    "address": "桃園市桃園區中正路19號",
    "type2": "百貨公司",
    "grade": "特優級",
    "country": "桃園市",
    "city": "桃園區",
    "village": "文化里",
    "latitude": "24.98992400000000000",
    "longitude": "121.31304000000000000"
  },
  {
    "name": "新光三越站前店7F男廁",
    "address": "桃園市桃園區中正路19號",
    "type2": "百貨公司",
    "grade": "特優級",
    "country": "桃園市",
    "city": "桃園區",
    "village": "文化里",
    "latitude": "24.98992400000000000",
    "longitude": "121.31304000000000000"
  },
  {
    "name": "龜山衛生所1F男廁",
    "address": "桃園市龜山區自強南路103號",
    "type2": "各級機關學校",
    "grade": "特優級",
    "country": "桃園市",
    "city": "龜山區",
    "village": "新興里",
    "latitude": "24.99148430114500000",
    "longitude": "121.33842051029200000"
  },
  {
    "name": "桃園市立圖書館龜山分館1F 綜合藝文中心殘障廁所",
    "address": "桃園市龜山區自強南路97號",
    "type2": "各級社教機關",
    "grade": "特優級",
    "country": "桃園市",
    "city": "龜山區",
    "village": "新興里",
    "latitude": "24.99199725697690000",
    "longitude": "121.33854120969800000"
  },
  {
    "name": "龜山區親子館2F殘障廁所",
    "address": "桃園市龜山區自強南路97號",
    "type2": "各級社教機關",
    "grade": "特優級",
    "country": "桃園市",
    "city": "龜山區",
    "village": "新興里",
    "latitude": "24.99199604144430000",
    "longitude": "121.33854255080200000"
  },
  {
    "name": "桃園市政府大廳-前棟2F女廁",
    "address": "桃園市桃園區縣府路1號",
    "type2": "各級機關學校",
    "grade": "特優級",
    "country": "桃園市",
    "city": "桃園區",
    "village": "光興里",
    "latitude": "24.99242100000000000",
    "longitude": "121.30104500000000000"
  },
  {
    "name": "桃園市政府大廳-前棟4F男廁",
    "address": "桃園市桃園區縣府路1號",
    "type2": "各級機關學校",
    "grade": "特優級",
    "country": "桃園市",
    "city": "桃園區",
    "village": "光興里",
    "latitude": "24.99242100000000000",
    "longitude": "121.30104500000000000"
  },
  {
    "name": "桃園市政府大廳-後棟4F女廁",
    "address": "桃園市桃園區縣府路1號",
    "type2": "各級機關學校",
    "grade": "特優級",
    "country": "桃園市",
    "city": "桃園區",
    "village": "光興里",
    "latitude": "24.99242100000000000",
    "longitude": "121.30104500000000000"
  },
  {
    "name": "桃園市政府大廳-後棟6F男廁",
    "address": "桃園市桃園區縣府路1號",
    "type2": "各級機關學校",
    "grade": "特優級",
    "country": "桃園市",
    "city": "桃園區",
    "village": "光興里",
    "latitude": "24.99242100000000000",
    "longitude": "121.30104500000000000"
  },
  {
    "name": "桃園市政府大廳-後棟7F女廁",
    "address": "桃園市桃園區縣府路1號",
    "type2": "各級機關學校",
    "grade": "特優級",
    "country": "桃園市",
    "city": "桃園區",
    "village": "光興里",
    "latitude": "24.99242100000000000",
    "longitude": "121.30104500000000000"
  },
  {
    "name": "溫州公園女廁",
    "address": "桃園市桃園區溫州街旁",
    "type2": "公園",
    "grade": "特優級",
    "country": "桃園市",
    "city": "桃園區",
    "village": "南埔里",
    "latitude": "25.00623400000000000",
    "longitude": "121.29812200000000000"
  },
  {
    "name": "桃園區台灣中油中正加油站男廁",
    "address": "桃園市桃園區中正路1550號",
    "type2": "加油站",
    "grade": "特優級",
    "country": "桃園市",
    "city": "桃園區",
    "village": "莊敬里",
    "latitude": "25.02683300000000000",
    "longitude": "121.29394000000000000"
  },
  {
    "name": "桃園區福元宮女廁",
    "address": "桃園市桃園區福元街246號",
    "type2": "寺廟教堂等宗教活動場所",
    "grade": "特優級",
    "country": "桃園市",
    "city": "桃園區",
    "village": "大興里",
    "latitude": "25.00955900000000000",
    "longitude": "121.31566900000000000"
  },
  {
    "name": "同新公園女廁",
    "address": "桃園市桃園區同安街旁（面對慈文國小後門）",
    "type2": "公園",
    "grade": "特優級",
    "country": "桃園市",
    "city": "桃園區",
    "village": "新埔里",
    "latitude": "25.01272000000000000",
    "longitude": "121.30503300000000000"
  },
  {
    "name": "麥當勞桃園大興西路店女廁",
    "address": "桃園市桃園區大興西路一段212號",
    "type2": "餐廳",
    "grade": "特優級",
    "country": "桃園市",
    "city": "桃園區",
    "village": "同安里",
    "latitude": "25.01356600000000000",
    "longitude": "121.30262700000000000"
  },
  {
    "name": "家樂福經國店B1(麥當勞旁)男廁",
    "address": "桃園市桃園區經國路369號",
    "type2": "量販店",
    "grade": "特優級",
    "country": "桃園市",
    "city": "桃園區",
    "village": "自強里",
    "latitude": "25.01561400000000000",
    "longitude": "121.30491100000000000"
  },
  {
    "name": "家樂福經國店1F(大門)男廁",
    "address": "桃園市桃園區經國路369號",
    "type2": "量販店",
    "grade": "特優級",
    "country": "桃園市",
    "city": "桃園區",
    "village": "自強里",
    "latitude": "25.01561400000000000",
    "longitude": "121.30491100000000000"
  },
  {
    "name": "家樂福經國店2F女廁",
    "address": "桃園市桃園區經國路369號",
    "type2": "量販店",
    "grade": "特優級",
    "country": "桃園市",
    "city": "桃園區",
    "village": "自強里",
    "latitude": "25.01561400000000000",
    "longitude": "121.30491100000000000"
  },
  {
    "name": "家樂福經國店4F(F11)女廁",
    "address": "桃園市桃園區經國路369號",
    "type2": "量販店",
    "grade": "特優級",
    "country": "桃園市",
    "city": "桃園區",
    "village": "自強里",
    "latitude": "25.01561400000000000",
    "longitude": "121.30491100000000000"
  },
  {
    "name": "觀音區-大覺寺男廁",
    "address": "桃園市觀音區保生里濱海路保生段306巷155號",
    "type2": "寺廟教堂等宗教活動場所",
    "grade": "特優級",
    "country": "桃園市",
    "city": "觀音區",
    "village": "保生里",
    "latitude": "25.01696500000000000",
    "longitude": "121.04850900000000000"
  },
  {
    "name": "同安親子公園女廁",
    "address": "桃園市桃園區新埔六街與同德六街口",
    "type2": "公園",
    "grade": "特優級",
    "country": "桃園市",
    "city": "桃園區",
    "village": "同安里",
    "latitude": "25.01708500000000000",
    "longitude": "121.30204200000000000"
  },
  {
    "name": "觀音區-寶蓮寺女廁",
    "address": "桃園市觀音區大同里中山路2段388巷36號",
    "type2": "寺廟教堂等宗教活動場所",
    "grade": "特優級",
    "country": "桃園市",
    "city": "觀音區",
    "village": "大同里",
    "latitude": "25.01503100000000000",
    "longitude": "121.13004800000000000"
  },
  {
    "name": "家樂福桃園店1F(服務中心旁)男廁",
    "address": "桃園市桃園區春日路1593號",
    "type2": "量販店",
    "grade": "特優級",
    "country": "桃園市",
    "city": "桃園區",
    "village": "汴洲里",
    "latitude": "25.02400000000000000",
    "longitude": "121.30593000000000000"
  },
  {
    "name": "桃園區中正公園女廁",
    "address": "桃園市桃園區莊敬路與同安街口",
    "type2": "公園",
    "grade": "特優級",
    "country": "桃園市",
    "city": "桃園區",
    "village": "莊敬里",
    "latitude": "25.02432800000000000",
    "longitude": "121.29745200000000000"
  },
  {
    "name": "觀音甘泉公園 女廁",
    "address": "桃園市觀音區中山路甘泉街4號",
    "type2": "公園",
    "grade": "特優級",
    "country": "桃園市",
    "city": "觀音區",
    "village": "觀音里",
    "latitude": "25.03747746987540000",
    "longitude": "121.08221483224000000"
  },
  {
    "name": "觀音區應天宮男廁",
    "address": "桃園市觀音區新興里文化路石橋段455巷25號",
    "type2": "寺廟教堂等宗教活動場所",
    "grade": "特優級",
    "country": "桃園市",
    "city": "觀音區",
    "village": "新興里",
    "latitude": "25.01241000000000000",
    "longitude": "121.09041400000000000"
  },
  {
    "name": "觀音區-協天宮女廁",
    "address": "桃園市觀音區樹林里5鄰關平爺路31號",
    "type2": "寺廟教堂等宗教活動場所",
    "grade": "特優級",
    "country": "桃園市",
    "city": "觀音區",
    "village": "樹林里",
    "latitude": "25.04513200000000000",
    "longitude": "121.12187600000000000"
  },
  {
    "name": "中油加盟 長庚站女廁",
    "address": "龜山區文化一路103號",
    "type2": "加油站",
    "grade": "特優級",
    "country": "桃園市",
    "city": "龜山區",
    "village": "樂善里",
    "latitude": "25.04899007883510000",
    "longitude": "121.38522505760200000"
  },
  {
    "name": "觀音區保障宮男廁",
    "address": "桃園市觀音區保障里大觀路1段579號",
    "type2": "寺廟教堂等宗教活動場所",
    "grade": "特優級",
    "country": "桃園市",
    "city": "觀音區",
    "village": "保障里",
    "latitude": "25.05000092837610000",
    "longitude": "121.15111112594600000"
  },
  {
    "name": "公一停車場殘障廁所",
    "address": "桃園市蘆竹區瓦窯村仁愛路一段2號",
    "type2": "公家機關設置供民眾使用者",
    "grade": "特優級",
    "country": "桃園市",
    "city": "蘆竹區",
    "village": "瓦窯里",
    "latitude": "25.05166298017520000",
    "longitude": "121.29273176193200000"
  },
  {
    "name": "龜山區文化公園男廁",
    "address": "桃園市龜山區文昌五街99號",
    "type2": "公園",
    "grade": "特優級",
    "country": "桃園市",
    "city": "龜山區",
    "village": "文化里",
    "latitude": "25.05696001244090000",
    "longitude": "121.37107372283900000"
  },
  {
    "name": "摩斯漢堡林口復興店男廁",
    "address": "桃園市龜山區復興一路156號",
    "type2": "餐廳",
    "grade": "特優級",
    "country": "桃園市",
    "city": "龜山區",
    "village": "文化里",
    "latitude": "25.05822300000000000",
    "longitude": "121.36647800000000000"
  },
  {
    "name": "中壢惠暘加油站女廁",
    "address": "中壢區三民里中正路二段38號",
    "type2": "加油站",
    "grade": "特優級",
    "country": "桃園市",
    "city": "中壢區",
    "village": "三民里",
    "latitude": "24.97457500000000000",
    "longitude": "121.19792400000000000"
  },
  {
    "name": "元生公園殘障廁所",
    "address": "中壢區元生一街",
    "type2": "公園",
    "grade": "特優級",
    "country": "桃園市",
    "city": "中壢區",
    "village": "復興里",
    "latitude": "24.97424190568780000",
    "longitude": "121.25287413597100000"
  },
  {
    "name": "衛生福利部桃園醫院(醫療)B1F男廁",
    "address": "桃園市桃園區中山路1492號",
    "type2": "醫院",
    "grade": "特優級",
    "country": "桃園市",
    "city": "桃園區",
    "village": "龍山里",
    "latitude": "24.97781500000000000",
    "longitude": "121.26938900000000000"
  },
  {
    "name": "衛生福利部桃園醫院(醫療)1F女廁",
    "address": "桃園市桃園區中山路1492號",
    "type2": "醫院",
    "grade": "特優級",
    "country": "桃園市",
    "city": "桃園區",
    "village": "龍山里",
    "latitude": "24.97781500000000000",
    "longitude": "121.26938900000000000"
  },
  {
    "name": "衛生福利部桃園醫院(醫療)8F女廁",
    "address": "桃園市桃園區中山路1492號",
    "type2": "醫院",
    "grade": "特優級",
    "country": "桃園市",
    "city": "桃園區",
    "village": "龍山里",
    "latitude": "24.97781500000000000",
    "longitude": "121.26938900000000000"
  },
  {
    "name": "衛生福利部桃園醫院(醫療)10F男廁",
    "address": "桃園市桃園區中山路1492號",
    "type2": "醫院",
    "grade": "特優級",
    "country": "桃園市",
    "city": "桃園區",
    "village": "龍山里",
    "latitude": "24.97781500000000000",
    "longitude": "121.26938900000000000"
  },
  {
    "name": "衛生福利部桃園醫院(門急診)3F開刀房女廁",
    "address": "桃園市桃園區中山路1492號",
    "type2": "醫院",
    "grade": "特優級",
    "country": "桃園市",
    "city": "桃園區",
    "village": "龍山里",
    "latitude": "24.97781500000000000",
    "longitude": "121.26938900000000000"
  },
  {
    "name": "桃園市立圖書館大林分館1F殘障廁所",
    "address": "桃園市桃園區樹仁二街37號",
    "type2": "各級社教機關",
    "grade": "特優級",
    "country": "桃園市",
    "city": "桃園區",
    "village": "大林里",
    "latitude": "24.97802800000000000",
    "longitude": "121.32057300000000000"
  },
  {
    "name": "桃園療養院(醫療暨行政大樓)1F女廁一",
    "address": "桃園市桃園區龍壽街71號",
    "type2": "醫院",
    "grade": "特優級",
    "country": "桃園市",
    "city": "桃園區",
    "village": "龍山里",
    "latitude": "24.97919400000000000",
    "longitude": "121.26892200000000000"
  },
  {
    "name": "桃園區介壽路加油站男廁",
    "address": "桃園市桃園區介壽路324號",
    "type2": "加油站",
    "grade": "特優級",
    "country": "桃園市",
    "city": "桃園區",
    "village": "豐林里",
    "latitude": "24.97998900000000000",
    "longitude": "121.30497800000000000"
  },
  {
    "name": "桃園區愛買1F(美食區旁)男廁",
    "address": "桃園市桃園區中山路939號",
    "type2": "百貨公司",
    "grade": "特優級",
    "country": "桃園市",
    "city": "桃園區",
    "village": "中泰里",
    "latitude": "24.98544600000000000",
    "longitude": "121.28599400000000000"
  },
  {
    "name": "桃園市立圖書館中路分館3F男廁",
    "address": "桃園市桃園區宏昌七街166號",
    "type2": "各級社教機關",
    "grade": "特優級",
    "country": "桃園市",
    "city": "桃園區",
    "village": "中山里",
    "latitude": "24.98645800000000000",
    "longitude": "121.29174600000000000"
  },
  {
    "name": "桃園區三民公園男廁（兒童遊戲場旁）",
    "address": "桃園市桃園區市三民路與三元街口",
    "type2": "公園",
    "grade": "特優級",
    "country": "桃園市",
    "city": "桃園區",
    "village": "青溪里",
    "latitude": "25.00124100000000000",
    "longitude": "121.31849800000000000"
  },
  {
    "name": "衛生福利部桃園醫院(綜合大樓)2F女廁",
    "address": "桃園市桃園區中山路1492號",
    "type2": "醫院",
    "grade": "特優級",
    "country": "桃園市",
    "city": "桃園區",
    "village": "龍山里",
    "latitude": "24.97799595513000000",
    "longitude": "121.26934289932300000"
  },
  {
    "name": "桃園市政府消防局6樓殘障廁所",
    "address": "桃園市桃園區力行路280號",
    "type2": "公家機關設置供民眾使用者",
    "grade": "特優級",
    "country": "桃園市",
    "city": "桃園區",
    "village": "中成里",
    "latitude": "24.99952400000000000",
    "longitude": "121.29806500000000000"
  },
  {
    "name": "虎頭山環保公園殘障廁所",
    "address": "桃園市桃園區成功路三段忠烈祠上方",
    "type2": "公園",
    "grade": "特優級",
    "country": "桃園市",
    "city": "桃園區",
    "village": "三元里",
    "latitude": "25.01191336025000000",
    "longitude": "121.32890403270700000"
  },
  {
    "name": "中壢米堤大飯店23F女廁",
    "address": "中壢區中央西路一段120號23F",
    "type2": "旅館",
    "grade": "特優級",
    "country": "桃園市",
    "city": "中壢區",
    "village": "永興里",
    "latitude": "24.95842100000000000",
    "longitude": "121.22025200000000000"
  },
  {
    "name": "新屋區戶政事務所男廁",
    "address": "桃園市新屋區新屋里中山路241號3F",
    "type2": "各級機關學校",
    "grade": "特優級",
    "country": "桃園市",
    "city": "新屋區",
    "village": "新屋里",
    "latitude": "24.97263716048020000",
    "longitude": "121.10650062561000000"
  },
  {
    "name": "向陽公園男廁",
    "address": "桃園市桃園區正光路186巷",
    "type2": "公園",
    "grade": "特優級",
    "country": "桃園市",
    "city": "桃園區",
    "village": "中正里",
    "latitude": "24.99760073457260000",
    "longitude": "121.29612743854500000"
  },
  {
    "name": "平鎮福明宮女廁",
    "address": "桃園市平鎮區雙福路二段2號",
    "type2": "寺廟教堂等宗教活動場所",
    "grade": "優等級",
    "country": "桃園市",
    "city": "平鎮區",
    "village": "雙連里",
    "latitude": "24.96586500000000000",
    "longitude": "121.18506400000000000"
  },
  {
    "name": "桃苗汽車南中壢營業所男廁",
    "address": "桃園市平鎮區環南路435號",
    "type2": "民眾團體活動場所",
    "grade": "特優級",
    "country": "桃園市",
    "city": "平鎮區",
    "village": "義民里",
    "latitude": "24.94731345593420000",
    "longitude": "121.20736241340600000"
  },
  {
    "name": "元力汽車平鎮服務廠男廁",
    "address": "桃園市平鎮區延平路3段588號",
    "type2": "民眾團體活動場所",
    "grade": "特優級",
    "country": "桃園市",
    "city": "平鎮區",
    "village": "宋屋里",
    "latitude": "24.93152910066560000",
    "longitude": "121.19689106941200000"
  },
  {
    "name": "桃園市南區青少年活動中心(3F)女廁",
    "address": "桃園市平鎮區延平路1段168號",
    "type2": "各級機關學校",
    "grade": "特優級",
    "country": "桃園市",
    "city": "平鎮區",
    "village": "新勢里",
    "latitude": "24.95089800000000000",
    "longitude": "121.21564300000000000"
  },
  {
    "name": "桃園市南區青少年活動中心(4F)女廁",
    "address": "桃園市平鎮區延平路1段168號",
    "type2": "各級機關學校",
    "grade": "特優級",
    "country": "桃園市",
    "city": "平鎮區",
    "village": "新勢里",
    "latitude": "24.95089800000000000",
    "longitude": "121.21564300000000000"
  },
  {
    "name": "桃園市南區青少年活動中心(5F)女廁",
    "address": "桃園市平鎮區延平路1段168號",
    "type2": "各級機關學校",
    "grade": "特優級",
    "country": "桃園市",
    "city": "平鎮區",
    "village": "新勢里",
    "latitude": "24.95089800000000000",
    "longitude": "121.21564300000000000"
  },
  {
    "name": "平鎮區獅子林社會發展協會(2f)男廁",
    "address": "桃園市平鎮區北貴里大仁路46號",
    "type2": "民眾團體活動場所",
    "grade": "特優級",
    "country": "桃園市",
    "city": "平鎮區",
    "village": "北貴里",
    "latitude": "24.92815551012690000",
    "longitude": "121.22556924819900000"
  },
  {
    "name": "平鎮區義興里集會所(1F)男廁",
    "address": "桃園市平鎮區義興里義興街80號",
    "type2": "各級機關學校",
    "grade": "特優級",
    "country": "桃園市",
    "city": "平鎮區",
    "village": "義興里",
    "latitude": "24.94977456297250000",
    "longitude": "121.20922386646300000"
  },
  {
    "name": "新屋區公所2F女廁",
    "address": "桃園市新屋區新屋里中山路265號",
    "type2": "各級機關學校",
    "grade": "特優級",
    "country": "桃園市",
    "city": "新屋區",
    "village": "新屋里",
    "latitude": "24.97260798310090000",
    "longitude": "121.10563158989000000"
  },
  {
    "name": "楊梅雅聞魅力體驗館觀光工廠男廁",
    "address": "桃園市楊梅區中山里中山北路一段二一巷一號",
    "type2": "觀光地區及風景區",
    "grade": "特優級",
    "country": "桃園市",
    "city": "楊梅區",
    "village": "中山里",
    "latitude": "24.90610250508540000",
    "longitude": "121.15088313818000000"
  },
  {
    "name": "桃園市復興區民代表會",
    "address": "桃園市復興區澤仁里中正路二六七號五樓",
    "type2": "公營事業機構設置供民眾使用者及其他",
    "grade": "特優級",
    "country": "桃園市",
    "city": "復興區",
    "village": "澤仁里",
    "latitude": "24.82312700000000000",
    "longitude": "121.35406700000000000"
  },
  {
    "name": "大江國際(5F)南側男廁三",
    "address": "中壢區中園路二段501號",
    "type2": "量販店",
    "grade": "特優級",
    "country": "桃園市",
    "city": "中壢區",
    "village": "內定里",
    "latitude": "25.00059900000000000",
    "longitude": "121.22885700000000000"
  },
  {
    "name": "大江國際(5F)北側男廁二",
    "address": "中壢區中園路二段501號",
    "type2": "量販店",
    "grade": "特優級",
    "country": "桃園市",
    "city": "中壢區",
    "village": "內定里",
    "latitude": "25.00059900000000000",
    "longitude": "121.22885700000000000"
  },
  {
    "name": "大江國際(5F)北側女廁二",
    "address": "中壢區中園路二段501號",
    "type2": "量販店",
    "grade": "特優級",
    "country": "桃園市",
    "city": "中壢區",
    "village": "內定里",
    "latitude": "25.00059900000000000",
    "longitude": "121.22885700000000000"
  },
  {
    "name": "觀音區公所 2F殘障廁所",
    "address": "桃園市觀音區觀音里觀新路56號2F",
    "type2": "各級機關學校",
    "grade": "特優級",
    "country": "桃園市",
    "city": "觀音區",
    "village": "觀音里",
    "latitude": "25.02829499097960000",
    "longitude": "121.08310532563300000"
  },
  {
    "name": "觀音區公所 3F殘障廁所",
    "address": "桃園市觀音區觀音里觀新路56號3F",
    "type2": "各級機關學校",
    "grade": "特優級",
    "country": "桃園市",
    "city": "觀音區",
    "village": "觀音里",
    "latitude": "25.02825804982090000",
    "longitude": "121.08311605446900000"
  },
  {
    "name": "高鐵穿堂北側男廁",
    "address": "桃園市中壢區青埔里高鐵北路一段六號",
    "type2": "高鐵",
    "grade": "特優級",
    "country": "桃園市",
    "city": "中壢區",
    "village": "青埔里",
    "latitude": "25.01335100000000000",
    "longitude": "121.21514200000000000"
  },
  {
    "name": "高鐵穿堂南側男廁",
    "address": "桃園市中壢區青埔里高鐵北路一段六號",
    "type2": "高鐵",
    "grade": "特優級",
    "country": "桃園市",
    "city": "中壢區",
    "village": "青埔里",
    "latitude": "25.01335100000000000",
    "longitude": "121.21514200000000000"
  },
  {
    "name": "桃園捷運-A7體育大學站女廁",
    "address": "桃園市龜山區文化一路688號",
    "type2": "捷運車站",
    "grade": "特優級",
    "country": "桃園市",
    "city": "龜山區",
    "village": "樂善里",
    "latitude": "25.04132581863500000",
    "longitude": "121.38512313365900000"
  },
  {
    "name": "桃園捷運A8長庚醫院站女廁",
    "address": "桃園市龜山區文化一路6號",
    "type2": "捷運車站",
    "grade": "特優級",
    "country": "桃園市",
    "city": "龜山區",
    "village": "文化里",
    "latitude": "25.06054000000000000",
    "longitude": "121.37034000000000000"
  },
  {
    "name": "桃園捷運A17領航站-女廁",
    "address": "桃園市大園區橫峰里領航北路四段351號",
    "type2": "捷運車站",
    "grade": "特優級",
    "country": "桃園市",
    "city": "大園區",
    "village": "橫峰里",
    "latitude": "25.02357700000000000",
    "longitude": "121.22227100000000000"
  },
  {
    "name": "桃園市立圖書館山腳分館2F男廁",
    "address": "桃園市蘆竹區山外路117號2樓",
    "type2": "文化育樂活動場所",
    "grade": "特優級",
    "country": "桃園市",
    "city": "蘆竹區",
    "village": "山腳里",
    "latitude": "25.08305791629770000",
    "longitude": "121.28813874715000000"
  },
  {
    "name": "大林公園無障礙廁所",
    "address": "桃園市桃園區大林里大原路三三巷一二號",
    "type2": "公園",
    "grade": "特優級",
    "country": "桃園市",
    "city": "桃園區",
    "village": "大林里",
    "latitude": "24.97742215706320000",
    "longitude": "121.32051944732700000"
  },
  {
    "name": "建國公園無障礙廁所",
    "address": "桃園市桃園區建國里建國路",
    "type2": "公園",
    "grade": "特優級",
    "country": "桃園市",
    "city": "桃園區",
    "village": "建國里",
    "latitude": "24.98731250502810000",
    "longitude": "121.31729006767300000"
  },
  {
    "name": "陽明公園(保羅街舞台下) 男廁",
    "address": "桃園市桃園區福林里德豐街對面",
    "type2": "公園",
    "grade": "優等級",
    "country": "桃園市",
    "city": "桃園區",
    "village": "福林里",
    "latitude": "24.98195411632470000",
    "longitude": "121.30996227264400000"
  },
  {
    "name": "陽明公園(保羅街舞台下) 女廁",
    "address": "桃園市桃園區福林里德豐街",
    "type2": "公園",
    "grade": "優等級",
    "country": "桃園市",
    "city": "桃園區",
    "village": "福林里",
    "latitude": "24.98187631585790000",
    "longitude": "121.31013393402100000"
  },
  {
    "name": "玉山公園(近桃大君匯) 女廁",
    "address": "桃園市桃園區玉山里南豐二街",
    "type2": "公園",
    "grade": "特優級",
    "country": "桃園市",
    "city": "桃園區",
    "village": "玉山里",
    "latitude": "24.98232366787000000",
    "longitude": "121.30193710327100000"
  },
  {
    "name": "桃園市立圖書館富岡分館1F無障礙廁所",
    "address": "桃園市楊梅區中華街66巷45號",
    "type2": "各級社教機關",
    "grade": "特優級",
    "country": "桃園市",
    "city": "楊梅區",
    "village": "富岡里",
    "latitude": "24.93480287890580000",
    "longitude": "121.08114838600200000"
  },
  {
    "name": "桃園市立圖書館富岡分館3F男廁",
    "address": "桃園市楊梅區中華街66巷45號",
    "type2": "各級社教機關",
    "grade": "特優級",
    "country": "桃園市",
    "city": "楊梅區",
    "village": "富岡里",
    "latitude": "24.93475909938420000",
    "longitude": "121.08118057251000000"
  },
  {
    "name": "中原商圈停車場B1女廁",
    "address": "中壢區中北路88號B1",
    "type2": "觀光地區及風景區",
    "grade": "特優級",
    "country": "桃園市",
    "city": "中壢區",
    "village": "普仁里",
    "latitude": "24.95605900000000000",
    "longitude": "121.23867700000000000"
  },
  {
    "name": "觀音區衛生所1F殘障廁所",
    "address": "桃園市觀音區觀音里觀新路58號1F",
    "type2": "各級機關學校",
    "grade": "特優級",
    "country": "桃園市",
    "city": "觀音區",
    "village": "觀音里",
    "latitude": "25.02782300000000000",
    "longitude": "121.08375100000000000"
  },
  {
    "name": "觀音區戶政事務所1F殘障廁所",
    "address": "桃園市觀音區觀音里觀和路28號1F",
    "type2": "各級機關學校",
    "grade": "特優級",
    "country": "桃園市",
    "city": "觀音區",
    "village": "觀音里",
    "latitude": "25.02802473623350000",
    "longitude": "121.08279418938800000"
  },
  {
    "name": "中壢區-玄天宮男廁",
    "address": "桃園市中壢區新興里天祥三街六號",
    "type2": "寺廟教堂等宗教活動場所",
    "grade": "特優級",
    "country": "桃園市",
    "city": "中壢區",
    "village": "新興里",
    "latitude": "24.94596900000000000",
    "longitude": "121.22270700000000000"
  },
  {
    "name": "青埔棒球場(籃球場旁)男廁",
    "address": "中壢區芝芭里文康路旁",
    "type2": "民眾團體活動場所",
    "grade": "優等級",
    "country": "桃園市",
    "city": "中壢區",
    "village": "芝芭里",
    "latitude": "25.00199120285850000",
    "longitude": "121.19861648974600000"
  },
  {
    "name": "龍潭區國軍桃園總醫院１樓內科門診區男廁及無障礙廁",
    "address": "桃園市龍潭區中興路168號",
    "type2": "醫院",
    "grade": "特優級",
    "country": "桃園市",
    "city": "龍潭區",
    "village": "中興里",
    "latitude": "24.87685535217060000",
    "longitude": "121.23491191850900000"
  },
  {
    "name": "龍潭區國軍桃園總醫院1樓急診區(急診辦公室前)男廁及親子廁",
    "address": "桃園市龍潭區中興路168號",
    "type2": "醫院",
    "grade": "特優級",
    "country": "桃園市",
    "city": "龍潭區",
    "village": "中興里",
    "latitude": "24.87697215232110000",
    "longitude": "121.23493337618100000"
  },
  {
    "name": "中壢區三角公園男廁",
    "address": "桃園市中壢區文化里吉林路與吉林路77巷口",
    "type2": "公園",
    "grade": "特優級",
    "country": "桃園市",
    "city": "中壢區",
    "village": "文化里",
    "latitude": "24.98229100000000000",
    "longitude": "121.24980900000000000"
  },
  {
    "name": "中壢區中山公園男廁(網球場)",
    "address": "桃園市中壢區內定里吉林北路",
    "type2": "公園",
    "grade": "特優級",
    "country": "桃園市",
    "city": "中壢區",
    "village": "內定里",
    "latitude": "24.98524016861030000",
    "longitude": "121.25112211701000000"
  },
  {
    "name": "桃園區南崁溪自行車步道女廁",
    "address": "桃園市桃園區春日路610巷",
    "type2": "公家機關設置供民眾使用者",
    "grade": "特優級",
    "country": "桃園市",
    "city": "桃園區",
    "village": "大興里",
    "latitude": "25.00780900000000000",
    "longitude": "121.31406500000000000"
  },
  {
    "name": "星巴克八德桃大門市無障礙廁所",
    "address": "桃園市八德區金和路35號",
    "type2": "餐廳",
    "grade": "特優級",
    "country": "桃園市",
    "city": "八德區",
    "village": "大和里",
    "latitude": "24.95512100000000000",
    "longitude": "121.29740200000000000"
  },
  {
    "name": "觀音甘泉公園殘障廁所",
    "address": "桃園市觀音區中山路甘泉街4號",
    "type2": "公園",
    "grade": "特優級",
    "country": "桃園市",
    "city": "觀音區",
    "village": "觀音里",
    "latitude": "25.03715600000000000",
    "longitude": "121.08178400000000000"
  },
  {
    "name": "大潤發八德店1F殘障廁所",
    "address": "桃園市八德區介壽路二段148號",
    "type2": "量販店",
    "grade": "特優級",
    "country": "桃園市",
    "city": "八德區",
    "village": "大和里",
    "latitude": "24.95417000000000000",
    "longitude": "121.29832700000000000"
  },
  {
    "name": "桃園市立圖書館龍潭分館1館1F前段女廁",
    "address": "桃園市龍潭區中山里中興路680號",
    "type2": "各級社教機關",
    "grade": "特優級",
    "country": "桃園市",
    "city": "龍潭區",
    "village": "中山里",
    "latitude": "24.87084291527940000",
    "longitude": "121.22231519219000000"
  },
  {
    "name": "桃園市立圖書館龍潭分館1館音樂館3F女廁",
    "address": "桃園市龍潭區中山里中興路680號",
    "type2": "各級社教機關",
    "grade": "特優級",
    "country": "桃園市",
    "city": "龍潭區",
    "village": "中山里",
    "latitude": "24.87085264910310000",
    "longitude": "121.22234201428000000"
  },
  {
    "name": "蘆竹國民運動中心1F殘障廁所(泳池)",
    "address": "桃園市蘆竹區仁愛路1段49號",
    "type2": "公營事業機構設置供民眾使用者及其他",
    "grade": "特優級",
    "country": "桃園市",
    "city": "蘆竹區",
    "village": "瓦窯里",
    "latitude": "25.05100600000000000",
    "longitude": "121.29414000000000000"
  },
  {
    "name": "蘆竹國民運動中心1F女廁(泳池)",
    "address": "桃園市蘆竹區仁愛路1段49號",
    "type2": "公營事業機構設置供民眾使用者及其他",
    "grade": "特優級",
    "country": "桃園市",
    "city": "蘆竹區",
    "village": "瓦窯里",
    "latitude": "25.05100600000000000",
    "longitude": "121.29414000000000000"
  },
  {
    "name": "蘆竹國民運動中心B1女廁(泳池)",
    "address": "桃園市蘆竹區仁愛路1段49號",
    "type2": "公營事業機構設置供民眾使用者及其他",
    "grade": "特優級",
    "country": "桃園市",
    "city": "蘆竹區",
    "village": "瓦窯里",
    "latitude": "25.05100600000000000",
    "longitude": "121.29414000000000000"
  },
  {
    "name": "蘆竹國民運動中心1F女廁",
    "address": "桃園市蘆竹區仁愛路1段49號",
    "type2": "公營事業機構設置供民眾使用者及其他",
    "grade": "特優級",
    "country": "桃園市",
    "city": "蘆竹區",
    "village": "瓦窯里",
    "latitude": "25.05100600000000000",
    "longitude": "121.29414000000000000"
  },
  {
    "name": "台灣中油大園加油站-殘障廁所",
    "address": "桃園市大園區中正東路58號",
    "type2": "加油站",
    "grade": "特優級",
    "country": "桃園市",
    "city": "大園區",
    "village": "大園里",
    "latitude": "25.06326355000000000",
    "longitude": "121.19916940000000000"
  },
  {
    "name": "蘆竹區協成加油站男廁",
    "address": "桃園市蘆竹區中正北路696號",
    "type2": "加油站",
    "grade": "優等級",
    "country": "桃園市",
    "city": "蘆竹區",
    "village": "蘆興里",
    "latitude": "25.04098400000000000",
    "longitude": "121.28046900000000000"
  },
  {
    "name": "蘆竹區長興路加油站男廁",
    "address": "桃園市蘆竹區長興路三段70號",
    "type2": "加油站",
    "grade": "普通級",
    "country": "桃園市",
    "city": "蘆竹區",
    "village": "內厝里",
    "latitude": "25.07337100000000000",
    "longitude": "121.28046600000000000"
  },
  {
    "name": "台茂B2F 2號廁所女廁",
    "address": "桃園市蘆竹區南崁路一段112號",
    "type2": "量販店",
    "grade": "特優級",
    "country": "桃園市",
    "city": "蘆竹區",
    "village": "錦中里",
    "latitude": "25.05307716439990000",
    "longitude": "121.28771066665600000"
  },
  {
    "name": "龍潭區第二公有市場女廁",
    "address": "桃園市龍潭區龍興路150巷31號",
    "type2": "市場",
    "grade": "特優級",
    "country": "桃園市",
    "city": "龍潭區",
    "village": "龍潭里",
    "latitude": "24.86572500000000000",
    "longitude": "121.21576300000000000"
  },
  {
    "name": "龍潭區台灣中油龍潭加油站男廁",
    "address": "桃園市龍潭區中山里北龍路264號",
    "type2": "加油站",
    "grade": "特優級",
    "country": "桃園市",
    "city": "龍潭區",
    "village": "中山里",
    "latitude": "24.86759000000000000",
    "longitude": "121.21722200000000000"
  },
  {
    "name": "龍潭區統一精工加油站龍潭二站男廁",
    "address": "桃園市龍潭區中興路448號",
    "type2": "加油站",
    "grade": "特優級",
    "country": "桃園市",
    "city": "龍潭區",
    "village": "黃唐里",
    "latitude": "24.87207900000000000",
    "longitude": "121.22711200000000000"
  },
  {
    "name": "龍潭區生曜加油站女廁",
    "address": "桃園市龍潭區中豐路117號",
    "type2": "加油站",
    "grade": "特優級",
    "country": "桃園市",
    "city": "龍潭區",
    "village": "中山里",
    "latitude": "24.87228600000000000",
    "longitude": "121.21363000000000000"
  },
  {
    "name": "埔頂公園(涼亭旁)女廁",
    "address": "桃園市大溪區仁善里仁善二街二三號後面",
    "type2": "公園",
    "grade": "特優級",
    "country": "桃園市",
    "city": "大溪區",
    "village": "仁善里",
    "latitude": "24.90916974113030000",
    "longitude": "121.28168106079100000"
  },
  {
    "name": "慈湖服務中心（後慈湖）女廁",
    "address": "大溪區復興路一段1097號",
    "type2": "觀光地區及風景區",
    "grade": "特優級",
    "country": "桃園市",
    "city": "大溪區",
    "village": "福安里",
    "latitude": "24.84781151603800000",
    "longitude": "121.30275249481200000"
  },
  {
    "name": "大溪區戶政事務所5F男廁",
    "address": "桃園市大溪區一心里康莊路181號4樓",
    "type2": "各級機關學校",
    "grade": "特優級",
    "country": "桃園市",
    "city": "大溪區",
    "village": "一心里",
    "latitude": "24.87969600000000000",
    "longitude": "121.28876400000000000"
  },
  {
    "name": "大溪區多目標體育館男廁",
    "address": "大溪區福仁里登龍路22號",
    "type2": "市場",
    "grade": "特優級",
    "country": "桃園市",
    "city": "大溪區",
    "village": "福仁里",
    "latitude": "24.88338528437770000",
    "longitude": "121.28698647022200000"
  },
  {
    "name": "台灣中油大溪加油站男廁",
    "address": "桃園市大溪區瑞興里20鄰瑞安路一段268號",
    "type2": "加油站",
    "grade": "特優級",
    "country": "桃園市",
    "city": "大溪區",
    "village": "瑞興里",
    "latitude": "24.88589000000000000",
    "longitude": "121.27960500000000000"
  },
  {
    "name": "楊梅區衛生所1F男廁",
    "address": "桃園市楊梅區校前路409號",
    "type2": "各級機關學校",
    "grade": "特優級",
    "country": "桃園市",
    "city": "楊梅區",
    "village": "永寧里",
    "latitude": "24.89673500000000000",
    "longitude": "121.14940600000000000"
  },
  {
    "name": "楊梅區衛生所2F男廁",
    "address": "桃園市楊梅區校前路409號",
    "type2": "各級機關學校",
    "grade": "特優級",
    "country": "桃園市",
    "city": "楊梅區",
    "village": "永寧里",
    "latitude": "24.89673500000000000",
    "longitude": "121.14940600000000000"
  },
  {
    "name": "台灣中油瑞興加油站女廁",
    "address": "大溪區瑞興里大鶯路1290號",
    "type2": "加油站",
    "grade": "優等級",
    "country": "桃園市",
    "city": "大溪區",
    "village": "瑞興里",
    "latitude": "24.92685907334400000",
    "longitude": "121.31384611129800000"
  },
  {
    "name": "楊湖加油站男廁",
    "address": "桃園市楊梅區三湖里楊湖路二段231號",
    "type2": "加油站",
    "grade": "特優級",
    "country": "桃園市",
    "city": "楊梅區",
    "village": "三湖里",
    "latitude": "24.91213500000000000",
    "longitude": "121.11530900000000000"
  },
  {
    "name": "蘆竹區地政事務所3F殘障廁所",
    "address": "桃園市蘆竹區長安路2段236號",
    "type2": "各級機關學校",
    "grade": "特優級",
    "country": "桃園市",
    "city": "蘆竹區",
    "village": "內厝里",
    "latitude": "25.06412200000000000",
    "longitude": "121.28374500000000000"
  },
  {
    "name": "蘆竹區戶政事務所4F殘障廁所",
    "address": "桃園市蘆竹區長安路2段236號",
    "type2": "各級機關學校",
    "grade": "特優級",
    "country": "桃園市",
    "city": "蘆竹區",
    "village": "內厝里",
    "latitude": "25.06412200000000000",
    "longitude": "121.28374500000000000"
  },
  {
    "name": "台灣中油大園民生加油站-男廁",
    "address": "桃園市大園區橫峰里民生南路163號",
    "type2": "加油站",
    "grade": "特優級",
    "country": "桃園市",
    "city": "大園區",
    "village": "橫峰里",
    "latitude": "25.06450798000000000",
    "longitude": "121.20216470000000000"
  },
  {
    "name": "大園區戶政事務所1F-男廁",
    "address": "桃園市大園區中山北路162號",
    "type2": "各級機關學校",
    "grade": "特優級",
    "country": "桃園市",
    "city": "大園區",
    "village": "大園里",
    "latitude": "25.06785500000000000",
    "longitude": "121.19584600000000000"
  },
  {
    "name": "桃園國際機場第一航廈(出境北側)1F-男廁",
    "address": "桃園市大園區航站南路9號",
    "type2": "航空站",
    "grade": "特優級",
    "country": "桃園市",
    "city": "大園區",
    "village": "埔心里",
    "latitude": "25.07055700000000000",
    "longitude": "121.22355300000000000"
  },
  {
    "name": "桃園國際機場第一航廈(出境南側)1F-男廁",
    "address": "桃園市大園區航站南路9號",
    "type2": "航空站",
    "grade": "特優級",
    "country": "桃園市",
    "city": "大園區",
    "village": "埔心里",
    "latitude": "25.07055700000000000",
    "longitude": "121.22355300000000000"
  },
  {
    "name": "桃園國際機場第一航廈(出境北側)2F-女廁",
    "address": "桃園市大園區航站南路9號",
    "type2": "航空站",
    "grade": "特優級",
    "country": "桃園市",
    "city": "大園區",
    "village": "埔心里",
    "latitude": "25.07055700000000000",
    "longitude": "121.22355300000000000"
  },
  {
    "name": "桃園國際機場第一航廈(出境南側)2F-女廁",
    "address": "桃園市大園區航站南路9號",
    "type2": "航空站",
    "grade": "特優級",
    "country": "桃園市",
    "city": "大園區",
    "village": "埔心里",
    "latitude": "25.07055700000000000",
    "longitude": "121.22355300000000000"
  },
  {
    "name": "桃園國際機場第一航廈(入境南側)1F-男廁",
    "address": "桃園市大園區航站南路9號",
    "type2": "航空站",
    "grade": "特優級",
    "country": "桃園市",
    "city": "大園區",
    "village": "埔心里",
    "latitude": "25.07055700000000000",
    "longitude": "121.22355300000000000"
  },
  {
    "name": "桃園國際機場第一航廈(入境北側)B1-男廁",
    "address": "桃園市大園區航站南路9號",
    "type2": "航空站",
    "grade": "特優級",
    "country": "桃園市",
    "city": "大園區",
    "village": "埔心里",
    "latitude": "25.07055700000000000",
    "longitude": "121.22355300000000000"
  },
  {
    "name": "桃園國際機場第一航廈(入境南側)B1-男廁",
    "address": "桃園市大園區航站南路9號",
    "type2": "航空站",
    "grade": "特優級",
    "country": "桃園市",
    "city": "大園區",
    "village": "埔心里",
    "latitude": "25.07055700000000000",
    "longitude": "121.22355300000000000"
  },
  {
    "name": "桃園國際機場第二航廈(P3南邊)B2-男廁",
    "address": "桃園市大園區航站南路9號",
    "type2": "航空站",
    "grade": "特優級",
    "country": "桃園市",
    "city": "大園區",
    "village": "埔心里",
    "latitude": "25.07055700000000000",
    "longitude": "121.22355300000000000"
  },
  {
    "name": "桃園國際機場第二航廈(P3南邊)B1-女廁",
    "address": "桃園市大園區航站南路9號",
    "type2": "航空站",
    "grade": "特優級",
    "country": "桃園市",
    "city": "大園區",
    "village": "埔心里",
    "latitude": "25.07055700000000000",
    "longitude": "121.22355300000000000"
  },
  {
    "name": "桃園國際機場第二航廈(中北)3F-男廁",
    "address": "桃園市大園區航站南路9號",
    "type2": "航空站",
    "grade": "特優級",
    "country": "桃園市",
    "city": "大園區",
    "village": "埔心里",
    "latitude": "25.07055700000000000",
    "longitude": "121.22355300000000000"
  },
  {
    "name": "台灣中油坤業加油站大園站-女廁",
    "address": "桃園市大園區菓林里三民路二段668號",
    "type2": "加油站",
    "grade": "特優級",
    "country": "桃園市",
    "city": "大園區",
    "village": "菓林里",
    "latitude": "25.07370946000000000",
    "longitude": "121.26007390000000000"
  },
  {
    "name": "桃園尊爵大飯店1樓男廁",
    "address": "桃園市桃園區莊敬路一段300號",
    "type2": "旅館",
    "grade": "特優級",
    "country": "桃園市",
    "city": "桃園區",
    "village": "莊敬里",
    "latitude": "25.02465913826700000",
    "longitude": "121.29770994186400000"
  },
  {
    "name": "桃園區南門活動中心女廁",
    "address": "桃園市桃園區三民路三段268號",
    "type2": "民眾團體活動場所",
    "grade": "特優級",
    "country": "桃園市",
    "city": "桃園區",
    "village": "南門里",
    "latitude": "24.61026800000000000",
    "longitude": "121.84775500000000000"
  },
  {
    "name": "八德區大湳停一公有停車場男廁",
    "address": "桃園市八德區廣福路42號",
    "type2": "公家機關設置供民眾使用者",
    "grade": "優等級",
    "country": "桃園市",
    "city": "八德區",
    "village": "大慶里",
    "latitude": "24.95890400000000000",
    "longitude": "121.29811100000000000"
  },
  {
    "name": "Global Mall桃園A19(A棟5F無障礙廁)",
    "address": "桃園市中壢區高鐵南路二段352號",
    "type2": "百貨公司",
    "grade": "特優級",
    "country": "桃園市",
    "city": "中壢區",
    "village": "芝芭里",
    "latitude": "25.00244500000000000",
    "longitude": "121.20293500000000000"
  },
  {
    "name": "Global Mall桃園A19(C棟2F無障礙廁)",
    "address": "桃園市中壢區高鐵南路二段352號",
    "type2": "百貨公司",
    "grade": "特優級",
    "country": "桃園市",
    "city": "中壢區",
    "village": "芝芭里",
    "latitude": "25.00244500000000000",
    "longitude": "121.20293500000000000"
  },
  {
    "name": "桃園市立圖書館山德分館男廁",
    "address": "桃園市龜山區頂興路二巷14號",
    "type2": "各級社教機關",
    "grade": "特優級",
    "country": "桃園市",
    "city": "龜山區",
    "village": "山德里",
    "latitude": "24.99246402061300000",
    "longitude": "121.32705464959100000"
  },
  {
    "name": "桃園市立圖書館山德分館女廁",
    "address": "桃園市龜山區頂興路二巷14號",
    "type2": "各級社教機關",
    "grade": "特優級",
    "country": "桃園市",
    "city": "龜山區",
    "village": "山德里",
    "latitude": "24.99246037402900000",
    "longitude": "121.32704660296400000"
  },
  {
    "name": "退輔會桃園市榮民服務處1F東側無障礙廁所",
    "address": "中壢區普慶里中山東路二段三七五號",
    "type2": "民眾團體活動場所",
    "grade": "特優級",
    "country": "桃園市",
    "city": "中壢區",
    "village": "普慶里",
    "latitude": "24.94901600000000000",
    "longitude": "121.24398200000000000"
  },
  {
    "name": "國家環境研究院3F女廁",
    "address": "中壢區五權里民族路三段260號",
    "type2": "公家機關設置供民眾使用者",
    "grade": "特優級",
    "country": "桃園市",
    "city": "中壢區",
    "village": "五權里",
    "latitude": "24.95909100000000000",
    "longitude": "121.19230700000000000"
  },
  {
    "name": "國家環境研究院5F男廁",
    "address": "中壢區五權里民族路三段260號",
    "type2": "公家機關設置供民眾使用者",
    "grade": "特優級",
    "country": "桃園市",
    "city": "中壢區",
    "village": "五權里",
    "latitude": "24.95909100000000000",
    "longitude": "121.19230700000000000"
  },
  {
    "name": "國家環境研究院4F右側女廁",
    "address": "中壢區五權里民族路三段260號",
    "type2": "公家機關設置供民眾使用者",
    "grade": "特優級",
    "country": "桃園市",
    "city": "中壢區",
    "village": "五權里",
    "latitude": "24.95909100000000000",
    "longitude": "121.19230700000000000"
  },
  {
    "name": "國家環境研究院7F左側男廁",
    "address": "中壢區五權里民族路三段260號",
    "type2": "公家機關設置供民眾使用者",
    "grade": "特優級",
    "country": "桃園市",
    "city": "中壢區",
    "village": "五權里",
    "latitude": "24.95909100000000000",
    "longitude": "121.19230700000000000"
  },
  {
    "name": "特力屋八德店1F男廁",
    "address": "桃園市八德區大勇里介壽路一段四七九號",
    "type2": "量販店",
    "grade": "特優級",
    "country": "桃園市",
    "city": "八德區",
    "village": "大勇里",
    "latitude": "24.96883200000000000",
    "longitude": "121.30149700000000000"
  },
  {
    "name": "特力屋八德店2F男廁",
    "address": "桃園市八德區大勇里介壽路一段四七九號",
    "type2": "量販店",
    "grade": "特優級",
    "country": "桃園市",
    "city": "八德區",
    "village": "大勇里",
    "latitude": "24.96883200000000000",
    "longitude": "121.30149700000000000"
  },
  {
    "name": "特力屋八德店3F無障礙廁所",
    "address": "桃園市八德區大勇里介壽路一段479號",
    "type2": "量販店",
    "grade": "特優級",
    "country": "桃園市",
    "city": "八德區",
    "village": "大勇里",
    "latitude": "24.96883200000000000",
    "longitude": "121.30149700000000000"
  },
  {
    "name": "交通部公路總局新竹區監理所桃園監理站1樓男廁",
    "address": "桃園市桃園區南門里介壽路416號",
    "type2": "公家機關設置供民眾使用者",
    "grade": "特優級",
    "country": "桃園市",
    "city": "桃園區",
    "village": "南門里",
    "latitude": "24.97895000000000000",
    "longitude": "121.30302200000000000"
  },
  {
    "name": "龍潭區經濟部水利署北區水資源局佳安里大草坪女廁",
    "address": "桃園市龍潭區佳安里佳安路2號",
    "type2": "公家機關設置供民眾使用者",
    "grade": "特優級",
    "country": "桃園市",
    "city": "龍潭區",
    "village": "佳安里",
    "latitude": "24.83457500000000000",
    "longitude": "121.24072200000000000"
  },
  {
    "name": "法務部矯正署台北監獄男廁",
    "address": "桃園市龜山區山鶯路宏德新村2號",
    "type2": "公家機關設置供民眾使用者",
    "grade": "特優級",
    "country": "桃園市",
    "city": "龜山區",
    "village": "山頂里",
    "latitude": "24.98016712443400000",
    "longitude": "121.33131533861200000"
  },
  {
    "name": "臺灣菸酒股份有限公司桃園營業處1樓男女廁",
    "address": "桃園市桃園區朝陽里民生路六六六號",
    "type2": "公營事業機構設置供民眾使用者及其他",
    "grade": "特優級",
    "country": "桃園市",
    "city": "桃園區",
    "village": "朝陽里",
    "latitude": "25.00415500000000000",
    "longitude": "121.30931800000000000"
  },
  {
    "name": "桃園市政府警察局1樓右側男女廁",
    "address": "桃園市桃園區光興里縣府路三號",
    "type2": "公家機關設置供民眾使用者",
    "grade": "特優級",
    "country": "桃園市",
    "city": "桃園區",
    "village": "光興里",
    "latitude": "24.99335700000000000",
    "longitude": "121.30203700000000000"
  },
  {
    "name": "桃園市公教退休人員協會1樓男廁",
    "address": "桃園市桃園區三元里公園路一二九號",
    "type2": "民眾團體活動場所",
    "grade": "特優級",
    "country": "桃園市",
    "city": "桃園區",
    "village": "三元里",
    "latitude": "25.00366700000000000",
    "longitude": "121.32739100000000000"
  },
  {
    "name": "桃園市立圖書館(埔子分館)2F男廁",
    "address": "桃園市桃園區中正里同安街六○一號",
    "type2": "各級社教機關",
    "grade": "特優級",
    "country": "桃園市",
    "city": "桃園區",
    "village": "中正里",
    "latitude": "25.02370700000000000",
    "longitude": "121.29749100000000000"
  },
  {
    "name": "桃園國際機場第一航廈(出境北側)3F-女廁",
    "address": "桃園市大園區航站南路9號",
    "type2": "航空站",
    "grade": "特優級",
    "country": "桃園市",
    "city": "大園區",
    "village": "埔心里",
    "latitude": "25.07055700000000000",
    "longitude": "121.22355300000000000"
  },
  {
    "name": "桃園國際機場第一航廈出境(聯新醫院前)B1-女廁",
    "address": "桃園市大園區航站南路9號",
    "type2": "航空站",
    "grade": "特優級",
    "country": "桃園市",
    "city": "大園區",
    "village": "埔心里",
    "latitude": "25.07055700000000000",
    "longitude": "121.22355300000000000"
  },
  {
    "name": "桃園國際機場第二航廈(中北)3F-無障礙廁所",
    "address": "桃園市大園區航站南路9號",
    "type2": "航空站",
    "grade": "特優級",
    "country": "桃園市",
    "city": "大園區",
    "village": "埔心里",
    "latitude": "25.07055700000000000",
    "longitude": "121.22355300000000000"
  },
  {
    "name": "特力家居南崁店3f女廁",
    "address": "桃園市蘆竹區南崁里中正路一號",
    "type2": "量販店",
    "grade": "特優級",
    "country": "桃園市",
    "city": "蘆竹區",
    "village": "南崁里",
    "latitude": "25.04364700000000000",
    "longitude": "121.29446000000000000"
  },
  {
    "name": "特力家居南崁店4F親子廁所",
    "address": "桃園市蘆竹區南崁里中正路一號",
    "type2": "量販店",
    "grade": "特優級",
    "country": "桃園市",
    "city": "蘆竹區",
    "village": "南崁里",
    "latitude": "25.04364700000000000",
    "longitude": "121.29446000000000000"
  },
  {
    "name": "特力家居南崁店5F女廁",
    "address": "桃園市蘆竹區南崁里中正路一號",
    "type2": "量販店",
    "grade": "特優級",
    "country": "桃園市",
    "city": "蘆竹區",
    "village": "南崁里",
    "latitude": "25.04364700000000000",
    "longitude": "121.29446000000000000"
  },
  {
    "name": "中茂新天地11樓男廁",
    "address": "桃園市桃園區同德五街77號",
    "type2": "餐廳",
    "grade": "特優級",
    "country": "桃園市",
    "city": "桃園區",
    "village": "同安里",
    "latitude": "25.01440234230170000",
    "longitude": "121.30048871040300000"
  },
  {
    "name": "蘆竹區統一超商 7-11 富竹門市",
    "address": "桃園市蘆竹區南竹路二段313號",
    "type2": "公營事業機構設置供民眾使用者及其他",
    "grade": "特優級",
    "country": "桃園市",
    "city": "蘆竹區",
    "village": "蘆興里",
    "latitude": "25.03730000000000000",
    "longitude": "121.28031100000000000"
  },
  {
    "name": "葡萄王生技能量館1F殘障廁所",
    "address": "桃園市平鎮區北興里金陵路二段402號",
    "type2": "觀光地區及風景區",
    "grade": "特優級",
    "country": "桃園市",
    "city": "平鎮區",
    "village": "北興里",
    "latitude": "24.93500556177260000",
    "longitude": "121.22512578920600000"
  },
  {
    "name": "桃園尊爵大飯店2樓女廁",
    "address": "桃園市桃園區莊敬路一段300號",
    "type2": "旅館",
    "grade": "特優級",
    "country": "桃園市",
    "city": "桃園區",
    "village": "莊敬里",
    "latitude": "25.02460931467090000",
    "longitude": "121.29769653081900000"
  },
  {
    "name": "桃園尊爵大飯店3樓殘障廁所",
    "address": "桃園市桃園區莊敬路一段300號",
    "type2": "旅館",
    "grade": "特優級",
    "country": "桃園市",
    "city": "桃園區",
    "village": "莊敬里",
    "latitude": "25.02458136483980000",
    "longitude": "121.29769116640100000"
  },
  {
    "name": "桃園捷運-A8長庚醫院站親子廁所",
    "address": "桃園市龜山區文化一路6號",
    "type2": "捷運車站",
    "grade": "特優級",
    "country": "桃園市",
    "city": "龜山區",
    "village": "文化里",
    "latitude": "25.06054000000000000",
    "longitude": "121.37034000000000000"
  },
  {
    "name": "桃園捷運A12機場第一航廈站-親子廁所",
    "address": "桃園市大園區埔心里航站南路15號",
    "type2": "捷運車站",
    "grade": "特優級",
    "country": "桃園市",
    "city": "大園區",
    "village": "埔心里",
    "latitude": "25.08138200000000000",
    "longitude": "121.23742200000000000"
  },
  {
    "name": "桃園捷運A14a機場旅館站-親子廁所",
    "address": "桃園市大園區埔心里航站南路1之2",
    "type2": "捷運車站",
    "grade": "特優級",
    "country": "桃園市",
    "city": "大園區",
    "village": "埔心里",
    "latitude": "25.06833100000000000",
    "longitude": "121.22186800000000000"
  },
  {
    "name": "桃園新光三越站前店5F男廁",
    "address": "桃園市桃園區文化里中正路一八號",
    "type2": "百貨公司",
    "grade": "特優級",
    "country": "桃園市",
    "city": "桃園區",
    "village": "文化里",
    "latitude": "24.98972418997860000",
    "longitude": "121.31258547306100000"
  },
  {
    "name": "桃園市立圖書館大湳分館1F男廁",
    "address": "桃園市八德區重慶街53巷2號",
    "type2": "各級社教機關",
    "grade": "特優級",
    "country": "桃園市",
    "city": "八德區",
    "village": "大愛里",
    "latitude": "24.95689500000000000",
    "longitude": "121.30191100000000000"
  },
  {
    "name": "福林公園無障礙廁所",
    "address": "桃園市桃園區福林里陽明五街",
    "type2": "公園",
    "grade": "特優級",
    "country": "桃園市",
    "city": "桃園區",
    "village": "福林里",
    "latitude": "24.97987779949500000",
    "longitude": "121.30618035793300000"
  },
  {
    "name": "八德區大勇兒童公園男廁",
    "address": "桃園市八德區忠勇一街與忠勇六街交會",
    "type2": "公園",
    "grade": "特優級",
    "country": "桃園市",
    "city": "八德區",
    "village": "大勇里",
    "latitude": "24.96574021362730000",
    "longitude": "121.30591106408200000"
  },
  {
    "name": "桃園區南平公園男廁",
    "address": "桃園市桃園區經國路336巷底",
    "type2": "公園",
    "grade": "特優級",
    "country": "桃園市",
    "city": "桃園區",
    "village": "新埔里",
    "latitude": "25.01985653670220000",
    "longitude": "121.30682945251500000"
  },
  {
    "name": "龍潭區北基加油站茗貴站無障礙廁所",
    "address": "桃園市龍潭區佳安里中正路佳安段350號",
    "type2": "加油站",
    "grade": "特優級",
    "country": "桃園市",
    "city": "龍潭區",
    "village": "佳安里",
    "latitude": "24.84885711905420000",
    "longitude": "121.24288773533400000"
  },
  {
    "name": "桃園市政府16樓女廁",
    "address": "桃園市桃園區縣府路1號",
    "type2": "各級機關學校",
    "grade": "特優級",
    "country": "桃園市",
    "city": "桃園區",
    "village": "光興里",
    "latitude": "24.99305800000000000",
    "longitude": "121.30098500000000000"
  },
  {
    "name": "桃園市政府B2男廁",
    "address": "桃園市桃園區縣府路1號",
    "type2": "各級機關學校",
    "grade": "特優級",
    "country": "桃園市",
    "city": "桃園區",
    "village": "光興里",
    "latitude": "24.99305800000000000",
    "longitude": "121.30098500000000000"
  },
  {
    "name": "中壢區景福加油站女廁",
    "address": "桃園市中壢區三民里環西路二段一○一號",
    "type2": "加油站",
    "grade": "特優級",
    "country": "桃園市",
    "city": "中壢區",
    "village": "三民里",
    "latitude": "24.96292300000000000",
    "longitude": "121.20855000000000000"
  },
  {
    "name": "桃園捷運A21環北站親子廁",
    "address": "中壢區興和里中豐北路1段26號",
    "type2": "捷運車站",
    "grade": "特優級",
    "country": "桃園市",
    "city": "中壢區",
    "village": "興和里",
    "latitude": "24.96707900000000000",
    "longitude": "121.22109900000000000"
  },
  {
    "name": "龍潭區公所1F無障礙廁所",
    "address": "桃園市龍潭區中山里中興路690號",
    "type2": "公家機關設置供民眾使用者",
    "grade": "特優級",
    "country": "桃園市",
    "city": "龍潭區",
    "village": "中山里",
    "latitude": "24.87050320433930000",
    "longitude": "121.22209310531600000"
  },
  {
    "name": "華泰名品城〈一期〉3A男廁",
    "address": "桃園市中壢區青埔里春德路189號",
    "type2": "百貨公司",
    "grade": "特優級",
    "country": "桃園市",
    "city": "中壢區",
    "village": "青埔里",
    "latitude": "25.01489700000000000",
    "longitude": "121.21271100000000000"
  },
  {
    "name": "四連棟-大溪木藝生態博物館無障礙廁所",
    "address": "桃園市大溪區興和里普濟路二三號",
    "type2": "觀光地區及風景區",
    "grade": "特優級",
    "country": "桃園市",
    "city": "大溪區",
    "village": "興和里",
    "latitude": "24.88073895874460000",
    "longitude": "121.28650183975400000"
  },
  {
    "name": "祥儀機器人夢工廠1F售票中心男女廁",
    "address": "桃園市桃園區桃鶯路461號",
    "type2": "觀光地區及風景區",
    "grade": "特優級",
    "country": "桃園市",
    "city": "桃園區",
    "village": "大林里",
    "latitude": "24.97563266793460000",
    "longitude": "121.32390975952100000"
  },
  {
    "name": "祥儀機器人夢工廠4F男廁",
    "address": "桃園市桃園區桃鶯路461號",
    "type2": "觀光地區及風景區",
    "grade": "特優級",
    "country": "桃園市",
    "city": "桃園區",
    "village": "大林里",
    "latitude": "24.97545000000000000",
    "longitude": "121.32390300000000000"
  },
  {
    "name": "桃園市立圖書館龍潭分館1館1F後段女廁",
    "address": "桃園市龍潭區中山里中興路680號",
    "type2": "各級社教機關",
    "grade": "特優級",
    "country": "桃園市",
    "city": "龍潭區",
    "village": "中山里",
    "latitude": "24.87088185056940000",
    "longitude": "121.22218644615700000"
  },
  {
    "name": "桃園統領廣場B2男廁",
    "address": "桃園市桃園區中正路61號",
    "type2": "百貨公司",
    "grade": "特優級",
    "country": "桃園市",
    "city": "桃園區",
    "village": "文化里",
    "latitude": "24.99107490738640000",
    "longitude": "121.31253397461500000"
  },
  {
    "name": "桃園統領廣場B1男廁",
    "address": "桃園市桃園區中正路61號",
    "type2": "百貨公司",
    "grade": "特優級",
    "country": "桃園市",
    "city": "桃園區",
    "village": "文化里",
    "latitude": "24.99106032088480000",
    "longitude": "121.31253397461500000"
  },
  {
    "name": "桃園統領廣場6樓女廁",
    "address": "桃園市桃園區中正路61號",
    "type2": "百貨公司",
    "grade": "特優級",
    "country": "桃園市",
    "city": "桃園區",
    "village": "文化里",
    "latitude": "24.99107976955330000",
    "longitude": "121.31252324577900000"
  },
  {
    "name": "桃園統領廣場7樓女廁",
    "address": "桃園市桃園區中正路61號",
    "type2": "百貨公司",
    "grade": "特優級",
    "country": "桃園市",
    "city": "桃園區",
    "village": "文化里",
    "latitude": "24.99105740355460000",
    "longitude": "121.31252861019700000"
  },
  {
    "name": "桃園統領廣場8樓女廁",
    "address": "桃園市桃園區中正路61號",
    "type2": "百貨公司",
    "grade": "特優級",
    "country": "桃園市",
    "city": "桃園區",
    "village": "文化里",
    "latitude": "24.99107685222350000",
    "longitude": "121.31255543228700000"
  },